id,nombre,centroide_lon,centroide_lat,categoria,fuente,municipio_id,departamento_id
6014030,JUAN E. BARRA,-60.484639770555,-37.8233871716044,Localidad simple,INDEC,60014.0,6014.0
6063030,NAPALEOFU,-58.7461862359423,-37.6254980210026,Localidad simple,INDEC,60063.0,6063.0
6063040,RAMOS OTERO,-58.3407185507274,-37.5426353712017,Localidad simple,INDEC,60063.0,6063.0
6063050,SAN AGUSTIN,-58.355377761682,-38.0122838564587,Localidad simple,INDEC,60063.0,6063.0
6063060,VILLA LAGUNA LA BRAVA,-57.9806008736401,-37.8596285282151,Localidad simple,INDEC,60063.0,6063.0
26007010,ARROYO VERDE,-65.3064500926092,-42.0119886969656,Localidad simple,INDEC,,26007.0
6014040,VASQUEZ,-60.1708487303777,-38.1766861391835,Localidad simple,INDEC,60014.0,6014.0
30015090,LA CRIOLLA,-58.1060425422369,-31.2693712880357,Localidad simple,INDEC,,30015.0
6070010,BARADERO,-59.5043068852807,-33.8128781547156,Localidad simple,INDEC,60070.0,6070.0
6084020,BENITO JUAREZ,-59.8057677109444,-37.6766410210104,Localidad simple,INDEC,60084.0,6084.0
6070020,IRINEO PORTELA,-59.6715601606315,-33.9810489198561,Localidad simple,INDEC,60070.0,6070.0
66126010,AGUAS BLANCAS,-64.346319220401,-22.7245611902241,Localidad simple,INDEC,,66126.0
6021010,ALBERTI,-60.2806197287099,-35.0330734347841,Localidad simple,INDEC,60021.0,6021.0
6021020,CORONEL SEGUI,-60.3939708823403,-34.8681189984321,Localidad simple,INDEC,60021.0,6021.0
6070030,SANTA COLOMA,-59.5585420642846,-34.062154134736,Localidad simple,INDEC,60070.0,6070.0
6070040,VILLA ALSINA,-59.3882017132282,-33.9096038045591,Localidad simple,INDEC,60070.0,6070.0
6077010,ARRECIFES,-60.1025564443537,-34.064591121211,Localidad simple,INDEC,60077.0,6077.0
6077020,TODD,-60.1562270065745,-34.0328240475348,Localidad simple,INDEC,60077.0,6077.0
6077030,VINA,-60.2263211205477,-33.9922765156086,Localidad simple,INDEC,60077.0,6077.0
6084010,BARKER,-59.3889380312926,-37.6424111302365,Localidad simple,INDEC,60084.0,6084.0
6084030,LOPEZ,-59.6278461536299,-37.5545120854221,Localidad simple,INDEC,60084.0,6084.0
6084040,TEDIN URIBURU,-59.7630391604187,-37.3683686253208,Localidad simple,INDEC,60084.0,6084.0
6021030,MECHITA,-60.4025971632697,-35.068013673391,Componente de localidad compuesta,INDEC,60021.0,6021.0
6021040,PLA,-60.2200612615259,-35.1243819752343,Localidad simple,INDEC,60021.0,6021.0
6021050,VILLA GRISOLIA,-60.070551324606,-35.1096178332808,Localidad simple,INDEC,60021.0,6021.0
6021060,VILLA MARIA,-60.3469385614882,-34.8881255447686,Localidad simple,INDEC,60021.0,6021.0
6021070,VILLA ORTIZ,-60.3048498633641,-34.8435329449862,Localidad simple,INDEC,60021.0,6021.0
6028010,ALMIRANTE BROWN,-58.3913639562887,-34.8002849372665,Componente de localidad compuesta,INDEC,60028.0,6028.0
6035010,AVELLANEDA,-58.3609838160556,-34.6670197685011,Componente de localidad compuesta,INDEC,60035.0,6035.0
6042010,AYACUCHO,-58.4895476662462,-37.1536695670417,Localidad simple,INDEC,60042.0,6042.0
6042020,LA CONSTANCIA,-58.7603890048806,-37.2286256057071,Localidad simple,INDEC,60042.0,6042.0
6042030,SOLANET,-58.5071421689017,-36.8444984439739,Localidad simple,INDEC,60042.0,6042.0
6042040,UDAQUIOLA,-58.5333344196536,-36.5637513540211,Localidad simple,INDEC,60042.0,6042.0
6049010,ARIEL,-59.9200651844348,-36.5312544192466,Localidad simple,INDEC,60049.0,6049.0
6049020,AZUL,-59.8586331707413,-36.7795144970312,Localidad simple,INDEC,60049.0,6049.0
6049030,CACHARI,-59.5030645507265,-36.3805626332947,Localidad simple,INDEC,60049.0,6049.0
6049040,CHILLAR,-59.9853181679139,-37.3150113247344,Localidad simple,INDEC,60049.0,6049.0
6049050,16 DE JULIO,-60.1652139181813,-37.2020524773603,Localidad simple,INDEC,60049.0,6049.0
6056010,BAHIA BLANCA,-62.265959896828,-38.7138052426005,Localidad simple,INDEC,60056.0,6056.0
6056020,CABILDO,-61.8926015349486,-38.4838572081944,Localidad simple,INDEC,60056.0,6056.0
6056030,GENERAL DANIEL CERRI,-62.3924221653991,-38.7136524854985,Localidad simple,INDEC,60056.0,6056.0
6063010,BALCARCE,-58.2551665841248,-37.8482779294345,Localidad simple,INDEC,60063.0,6063.0
6063020,LOS PINOS,-58.3225920150442,-37.9412057603,Localidad simple,INDEC,60063.0,6063.0
6084050,VILLA CACIQUE,-59.4003533386514,-37.6704778893557,Localidad simple,INDEC,60084.0,6084.0
6091010,BERAZATEGUI,-58.2078083914443,-34.7633439435624,Componente de localidad compuesta,INDEC,60091.0,6091.0
6098010,BERISSO,-57.8863953320288,-34.8764141983789,Componente de localidad compuesta,INDEC,60098.0,6098.0
6105010,HALE,-60.8534495072374,-36.0010429767568,Localidad simple,INDEC,60105.0,6105.0
6105020,JUAN F. IBARRA,-61.2552591224517,-36.3498770527922,Localidad simple,INDEC,60105.0,6105.0
6105040,PAULA,-61.0243287245345,-36.5053183545527,Localidad simple,INDEC,60105.0,6105.0
6105050,PIROVANO,-61.5545516558692,-36.5109170215402,Localidad simple,INDEC,60105.0,6105.0
6105060,SAN CARLOS DE BOLIVAR,-61.1131898679982,-36.2295602208798,Localidad simple,INDEC,60105.0,6105.0
6105070,URDAMPILLETA,-61.419116019242,-36.4329292363695,Localidad simple,INDEC,60105.0,6105.0
6105080,VILLA LYNCH PUEYRREDON,-61.3618625494724,-36.6025793254646,Localidad simple,INDEC,60105.0,6105.0
6112005,ASAMBLEA,-60.4168952837295,-35.2267581272748,Localidad simple,INDEC,60112.0,6112.0
6112010,BRAGADO,-60.4879147568209,-35.1189422997629,Localidad simple,INDEC,60112.0,6112.0
6112020,COMODORO PY,-60.5217314911689,-35.3233100374631,Localidad simple,INDEC,60112.0,6112.0
6112030,GENERAL O'BRIEN,-60.7597838238054,-34.9067979091956,Localidad simple,INDEC,60112.0,6112.0
6112040,IRALA,-60.6916912010277,-34.7718230311122,Localidad simple,INDEC,60112.0,6112.0
6112050,LA LIMPIA,-60.5928546665185,-35.0797272650156,Localidad simple,INDEC,60112.0,6112.0
2000010,CIUDAD AUTONOMA DE BUENOS AIRES,-58.3887253951658,-34.6109252295721,Componente de localidad compuesta,INDEC,,2000.0
6007010,CARHUE,-62.7578962604015,-37.1774801030509,Localidad simple,INDEC,60007.0,6007.0
6007020,COLONIA SAN MIGUEL ARCANGEL,-63.117609405389,-37.4486186469627,Localidad simple,INDEC,60007.0,6007.0
6007030,DELFIN HUERGO,-63.2331690622102,-37.3173292631958,Localidad simple,INDEC,60007.0,6007.0
6007040,ESPARTILLAR,-62.4387637810214,-37.3563345638716,Componente de localidad compuesta,INDEC,60007.0,6007.0
6007050,ESTEBAN AGUSTIN GASCON,-63.2565950033782,-37.4544378016288,Localidad simple,INDEC,60007.0,6007.0
6007060,LA PALA,-63.3661281675236,-36.6613400852941,Localidad simple,INDEC,60007.0,6007.0
6007070,MAZA,-63.3385151506224,-36.7999468137731,Localidad simple,INDEC,60007.0,6007.0
6007080,RIVERA,-63.2442194943605,-37.1583546113813,Localidad simple,INDEC,60007.0,6007.0
6007110,YUTUYACO,-63.133808887439,-36.9884309445004,Localidad simple,INDEC,60007.0,6007.0
6014010,ADOLFO GONZALES CHAVES,-60.1003341740637,-38.0333995087596,Localidad simple,INDEC,60014.0,6014.0
6014020,DE LA GARMA,-60.415659383962,-37.9635021758562,Localidad simple,INDEC,60014.0,6014.0
6112070,MECHITA,-60.4084937925362,-35.0699378566803,Componente de localidad compuesta,INDEC,60112.0,6112.0
6112080,OLASCOAGA,-60.6115341696178,-35.2375277927366,Localidad simple,INDEC,60112.0,6112.0
6112090,WARNES,-60.5381681629003,-34.9098734445056,Localidad simple,INDEC,60112.0,6112.0
6119010,ALTAMIRANO,-58.1504868159157,-35.3615828022139,Localidad simple,INDEC,60119.0,6119.0
6119015,BARRIO EL MIRADOR,-58.0484420796345,-35.3145370547125,Localidad simple,INDEC,60119.0,6119.0
6119020,BARRIO LAS GOLONDRINAS,-58.1935382681817,-35.0335777783555,Localidad simple,INDEC,60119.0,6119.0
6119030,BARRIO LOS BOSQUECITOS,-58.1835007859607,-35.1050389949725,Localidad simple,INDEC,60119.0,6119.0
6119040,BARRIO PARQUE LAS ACACIAS,-58.2730405375653,-35.1030329461442,Localidad simple,INDEC,60119.0,6119.0
6119045,CAMPOS DE ROCA,-58.0953896541907,-35.1149772603157,Localidad simple,INDEC,60119.0,6119.0
6119050,CORONEL BRANDSEN,-58.2373529446643,-35.1690983002919,Localidad simple,INDEC,60119.0,6119.0
6119055,CLUB DE CAMPO LAS MALVINAS,-58.2433030920635,-35.2139978115731,Localidad simple,INDEC,60119.0,6119.0
6119060,GOMEZ,-58.1656899882305,-35.0693655332834,Localidad simple,INDEC,60119.0,6119.0
6119070,JEPPENER,-58.1996649431989,-35.2802043920968,Localidad simple,INDEC,60119.0,6119.0
6119080,OLIDEN,-57.9479623248001,-35.1842584334678,Localidad simple,INDEC,60119.0,6119.0
6119085,POSADA DE LOS LAGOS,-58.0504528667351,-35.1499383981993,Localidad simple,INDEC,60119.0,6119.0
6119090,SAMBOROMBON,-58.2805297949826,-35.2206242719966,Localidad simple,INDEC,60119.0,6119.0
6126010,LOS CARDALES,-58.9784574815339,-34.3160243688815,Componente de localidad compuesta,INDEC,60126.0,6126.0
6126020,BARRIO LOS PIONEROS (BARRIO TAVELLA),-58.9584400368589,-34.2530406367633,Localidad simple,INDEC,60126.0,6126.0
6126030,CAMPANA,-58.9588741035355,-34.1639618118269,Localidad simple,INDEC,60126.0,6126.0
6126035,CHACRAS DEL RIO LUJAN,-58.921199044246,-34.2934153226239,Localidad simple,INDEC,60126.0,6126.0
6126040,RIO LUJAN,-58.8911906524052,-34.2816770641806,Localidad simple,INDEC,60126.0,6126.0
6134010,ALEJANDRO PETION,-58.6749430768989,-34.9793768508134,Localidad simple,INDEC,60134.0,6134.0
6134020,BARRIO EL TALADRO,-58.8632420603475,-35.0742486164225,Localidad simple,INDEC,60134.0,6134.0
6134030,CANUELAS,-58.7583856965375,-35.0527140350539,Localidad simple,INDEC,60134.0,6134.0
6134040,GOBERNADOR UDAONDO,-58.5943053657455,-35.3003271130454,Localidad simple,INDEC,60134.0,6134.0
6134050,MAXIMO PAZ,-58.6160962899907,-34.9405321574521,Componente de localidad compuesta,INDEC,60134.0,6134.0
6134060,SANTA ROSA,-58.7308918275978,-34.9611839371811,Localidad simple,INDEC,60134.0,6134.0
6134070,URIBELARREA,-58.8904871463421,-35.1227364407356,Localidad simple,INDEC,60134.0,6134.0
6134080,VICENTE CASARES,-58.6504979594296,-34.9653526702416,Localidad simple,INDEC,60134.0,6134.0
6140010,CAPITAN SARMIENTO,-59.789349139091,-34.1723674255219,Localidad simple,INDEC,60140.0,6140.0
6140020,LA LUISA,-59.9240058312679,-34.1285572110784,Localidad simple,INDEC,60140.0,6140.0
6147010,BELLOCQ,-61.5312630222769,-35.9189705554631,Localidad simple,INDEC,60147.0,6147.0
6147020,CADRET,-61.3353879836967,-35.7727531397053,Localidad simple,INDEC,60147.0,6147.0
6147030,CARLOS CASARES,-61.3653159121918,-35.623543502046,Localidad simple,INDEC,60147.0,6147.0
6147040,COLONIA MAURICIO,-61.4378670824782,-35.5249595511909,Localidad simple,INDEC,60147.0,6147.0
6147050,HORTENSIA,-61.262290153739,-35.9277092575349,Localidad simple,INDEC,60147.0,6147.0
6147060,LA SOFIA,-61.1702865161871,-35.7003907357414,Localidad simple,INDEC,60147.0,6147.0
6147070,MAURICIO HIRSCH,-61.5244457086778,-35.583017649873,Localidad simple,INDEC,60147.0,6147.0
6147080,MOCTEZUMA,-61.4930734927676,-35.4774725641963,Localidad simple,INDEC,60147.0,6147.0
6147090,ORDOQUI,-61.1594280439031,-35.8831262095535,Localidad simple,INDEC,60147.0,6147.0
6147100,SMITH,-61.5937811081594,-35.4946290260766,Localidad simple,INDEC,60147.0,6147.0
6154010,CARLOS TEJEDOR,-62.4193023144118,-35.3925733302196,Localidad simple,INDEC,60154.0,6154.0
6154030,CURARU,-62.1924372294866,-35.6403503028113,Localidad simple,INDEC,60154.0,6154.0
6154040,TIMOTE,-62.2246532791856,-35.3477615165229,Localidad simple,INDEC,60154.0,6154.0
6154050,TRES ALGARROBOS,-62.7730814064669,-35.1979815144911,Localidad simple,INDEC,60154.0,6154.0
6161010,CARMEN DE ARECO,-59.8229019801033,-34.3776987251735,Localidad simple,INDEC,60161.0,6161.0
6161030,TRES SARGENTOS,-60.0008697422008,-34.4664778301466,Localidad simple,INDEC,60161.0,6161.0
6168010,CASTELLI,-57.8071801619355,-36.091694119436,Localidad simple,INDEC,60168.0,6168.0
6168020,CENTRO GUERRERO,-57.8235422591575,-36.0570621940227,Localidad simple,INDEC,60168.0,6168.0
6168030,CERRO DE LA GLORIA,-57.4487354447874,-35.976053059995,Localidad simple,INDEC,60168.0,6168.0
6175010,COLON,-61.099560506382,-33.8978633606345,Localidad simple,INDEC,60175.0,6175.0
6175020,VILLA MANUEL POMAR,-60.9438081845998,-33.9147838019682,Componente de localidad compuesta,INDEC,60175.0,6175.0
6175030,PEARSON,-60.8922239880462,-33.6518963027432,Localidad simple,INDEC,60175.0,6175.0
6175040,SARASA,-61.2019040914738,-34.0523353092343,Localidad simple,INDEC,60175.0,6175.0
6182010,BAJO HONDO,-61.9184051093309,-38.7648159927502,Localidad simple,INDEC,60182.0,6182.0
6182020,BALNEARIO PEHUEN CO,-61.5471990087107,-38.9961963948629,Localidad simple,INDEC,60182.0,6182.0
6182025,PAGO CHICO,-62.1195194756714,-38.7839402799391,Localidad simple,INDEC,60182.0,6182.0
6182030,PUNTA ALTA,-62.0749536088688,-38.8813527346955,Localidad simple,INDEC,60182.0,6182.0
6182050,VILLA GENERAL ARIAS,-62.09498539538,-38.8069001411051,Localidad simple,INDEC,60182.0,6182.0
6189010,APARICIO,-60.8809603426407,-38.6204949120776,Localidad simple,INDEC,60189.0,6189.0
6189020,MARISOL,-60.5329774471942,-38.9224906889726,Localidad simple,INDEC,60189.0,6189.0
6189030,CORONEL DORREGO,-61.2884948879698,-38.7166239148323,Localidad simple,INDEC,60189.0,6189.0
6189040,EL PERDIDO,-61.0884421797928,-38.6757752787603,Localidad simple,INDEC,60189.0,6189.0
6189050,FARO,-61.0688772134763,-38.7966781095909,Localidad simple,INDEC,60189.0,6189.0
6189060,IRENE,-60.6954938748393,-38.5543426342658,Localidad simple,INDEC,60189.0,6189.0
6189070,ORIENTE,-60.6092238150828,-38.7388491145692,Localidad simple,INDEC,60189.0,6189.0
6189075,PARAJE LA RUTA,-60.8608557685895,-38.6534164106777,Localidad simple,INDEC,60189.0,6189.0
6189080,SAN ROMAN,-61.5377200112301,-38.7415550885108,Localidad simple,INDEC,60189.0,6189.0
6196010,CORONEL PRINGLES,-61.3540715661068,-37.9865210556901,Localidad simple,INDEC,60196.0,6196.0
6196020,EL DIVISORIO,-61.4450578127822,-38.3235636030787,Localidad simple,INDEC,60196.0,6196.0
6196030,EL PENSAMIENTO,-61.3145847771451,-38.2154094275446,Localidad simple,INDEC,60196.0,6196.0
6196040,INDIO RICO,-60.8866340266383,-38.3293770967784,Localidad simple,INDEC,60196.0,6196.0
6196050,LARTIGAU,-61.566096860456,-38.44591903663,Localidad simple,INDEC,60196.0,6196.0
6203010,CASCADA,-62.2971682457111,-37.2899615825436,Localidad simple,INDEC,60203.0,6203.0
6203030,CURAMALAL,-62.10361959864,-37.4843018699441,Localidad simple,INDEC,60203.0,6203.0
6203040,D'ORBIGNY,-61.7052608546557,-37.6772293087783,Localidad simple,INDEC,60203.0,6203.0
6203050,HUANGUELEN,-61.9297529087938,-37.0622288209544,Localidad simple,INDEC,60203.0,6203.0
6203060,PASMAN,-62.1602259170472,-37.2234351404125,Localidad simple,INDEC,60203.0,6203.0
6203070,SAN JOSE,-61.9211473085303,-37.5077480260109,Localidad simple,INDEC,60203.0,6203.0
6203080,SANTA MARIA,-61.872634363442,-37.5565856774998,Localidad simple,INDEC,60203.0,6203.0
6203090,SANTA TRINIDAD,-61.9252761219778,-37.4891036510029,Localidad simple,INDEC,60203.0,6203.0
6203100,VILLA LA ARCADIA,-61.7885553500206,-38.1345025284944,Componente de localidad compuesta,INDEC,60203.0,6203.0
6210010,CASTILLA,-59.9005194580559,-34.6131247014799,Localidad simple,INDEC,60210.0,6210.0
6210020,CHACABUCO,-60.4701843504346,-34.6429843999409,Localidad simple,INDEC,60210.0,6210.0
6210030,LOS ANGELES,-60.1801845132051,-34.4575064000002,Localidad simple,INDEC,60210.0,6210.0
6210040,O'HIGGINS,-60.6986325840688,-34.5854707868254,Localidad simple,INDEC,60210.0,6210.0
6210050,RAWSON,-60.0677106761006,-34.6086374337309,Localidad simple,INDEC,60210.0,6210.0
6217003,BARRIO LOMAS ALTAS,-58.0680436475186,-35.5739889229165,Localidad simple,INDEC,60218.0,6217.0
6217010,CHASCOMUS,-58.0084847937359,-35.5770827047567,Localidad simple,INDEC,60218.0,6217.0
6217020,MANUEL J. COBO,-57.8964226760932,-35.8748248734085,Localidad simple,INDEC,60466.0,6217.0
6217030,VILLA PARQUE GIRADO,-58.0145524400059,-35.6282696386352,Localidad simple,INDEC,60218.0,6217.0
6224005,BENITEZ,-60.1236385563996,-34.9660329017518,Localidad simple,INDEC,60224.0,6224.0
6224010,CHIVILCOY,-60.0188841030321,-34.8980163772726,Localidad simple,INDEC,60224.0,6224.0
6224020,EMILIO AYARZA,-60.0392314192743,-34.746060108407,Localidad simple,INDEC,60224.0,6224.0
6224030,GOROSTIAGA,-59.8646671984292,-34.839127302807,Localidad simple,INDEC,60224.0,6224.0
6224040,LA RICA,-59.8639302070489,-34.9739189538858,Localidad simple,INDEC,60224.0,6224.0
6224050,MOQUEHUA,-59.7745302971612,-35.0926582854313,Localidad simple,INDEC,60224.0,6224.0
6224060,RAMON BIAUS,-59.9236682591743,-35.0858455213162,Localidad simple,INDEC,60224.0,6224.0
6224070,SAN SEBASTIAN,-59.7018597369347,-34.9443783815262,Localidad simple,INDEC,60224.0,6224.0
6231010,ANDANT,-62.1324009778233,-36.5640579804658,Localidad simple,INDEC,60231.0,6231.0
6231020,ARBOLEDAS,-61.4878179060517,-36.8827708539235,Localidad simple,INDEC,60231.0,6231.0
6231030,DAIREAUX,-61.7450132654369,-36.6001749213746,Localidad simple,INDEC,60231.0,6231.0
6231040,LA LARGA,-61.9291952273289,-36.6749256386405,Localidad simple,INDEC,60231.0,6231.0
6231060,SALAZAR,-62.2003365899,-36.307117163487,Localidad simple,INDEC,60231.0,6231.0
6238010,DOLORES,-57.6752657333964,-36.3161215739926,Localidad simple,INDEC,60238.0,6238.0
6238020,SEVIGNE,-57.7413707296745,-36.2067284269712,Localidad simple,INDEC,60238.0,6238.0
6245010,ENSENADA,-57.9132063028971,-34.859087650169,Componente de localidad compuesta,INDEC,60245.0,6245.0
6252010,ESCOBAR,-58.792041970497,-34.3478151482937,Componente de localidad compuesta,INDEC,60252.0,6252.0
6260010,ESTEBAN ECHEVERRIA,-58.4653924015445,-34.8182320587028,Componente de localidad compuesta,INDEC,60260.0,6260.0
6266010,ARROYO DE LA CRUZ,-59.1094149717708,-34.3363786908945,Localidad simple,INDEC,60266.0,6266.0
6266020,CAPILLA DEL SENOR,-59.1015232724441,-34.2912108668035,Localidad simple,INDEC,60266.0,6266.0
6266040,LOS CARDALES,-58.9885651588167,-34.3300736993853,Componente de localidad compuesta,INDEC,60266.0,6266.0
6266050,PARADA ORLANDO,-59.0759905460337,-34.3273003551547,Localidad simple,INDEC,60266.0,6266.0
6266060,PARADA ROBLES - PAVON,-59.1237945023542,-34.3751967438675,Componente de localidad compuesta,INDEC,60266.0,6266.0
6270010,EZEIZA,-58.522884786315,-34.8499164466297,Componente de localidad compuesta,INDEC,60270.0,6270.0
6274010,FLORENCIO VARELA,-58.2762820744731,-34.8080028544593,Componente de localidad compuesta,INDEC,60274.0,6274.0
6277010,BLAQUIER,-62.4786821321875,-34.6356616332747,Localidad simple,INDEC,60277.0,6277.0
6277020,FLORENTINO AMEGHINO,-62.4671575805383,-34.846677699169,Localidad simple,INDEC,60277.0,6277.0
6277030,PORVENIR,-62.2174229886621,-34.9522292183733,Localidad simple,INDEC,60277.0,6277.0
6280005,CENTINELA DEL MAR,-58.216863731472,-38.4348806367321,Localidad simple,INDEC,60280.0,6280.0
6280010,COMANDANTE NICANOR OTAMENDI,-57.8415353121543,-38.1119335118514,Localidad simple,INDEC,60280.0,6280.0
6280020,MAR DEL SUR,-57.9920393065731,-38.3446881533109,Localidad simple,INDEC,60280.0,6280.0
6280030,MECHONGUE,-58.2230121065801,-38.1486545138318,Localidad simple,INDEC,60280.0,6280.0
6280040,MIRAMAR,-57.8404714577536,-38.2707429318083,Componente de localidad compuesta,INDEC,60280.0,6280.0
6287010,GENERAL ALVEAR,-60.0147935726886,-36.0229384341366,Localidad simple,INDEC,60287.0,6287.0
6294010,ARRIBENOS,-61.3548577979495,-34.2101542565966,Localidad simple,INDEC,60294.0,6294.0
6294020,ASCENSION,-61.103613881133,-34.2368758979793,Localidad simple,INDEC,60294.0,6294.0
6294040,FERRE,-61.132654886464,-34.1250383813873,Localidad simple,INDEC,60294.0,6294.0
6294050,GENERAL ARENALES,-61.3056277788216,-34.3044679711076,Localidad simple,INDEC,60294.0,6294.0
6294060,LA ANGELITA,-60.9685988224111,-34.2608740726731,Localidad simple,INDEC,60294.0,6294.0
6301010,GENERAL BELGRANO,-58.4944615102033,-35.7694577358026,Localidad simple,INDEC,60301.0,6301.0
6301020,GORCHS,-58.9582999568816,-35.6733729629116,Localidad simple,INDEC,60301.0,6301.0
6308010,GENERAL GUIDO,-57.790501903704,-36.6431651777016,Localidad simple,INDEC,60308.0,6308.0
6308020,LABARDEN,-58.1035671819428,-36.9489668508722,Localidad simple,INDEC,60308.0,6308.0
6315010,GENERAL JUAN MADARIAGA,-57.1364809577407,-36.9956399453583,Localidad simple,INDEC,60315.0,6315.0
6322010,GENERAL LA MADRID,-61.2595794125711,-37.2503992475804,Localidad simple,INDEC,60322.0,6322.0
6322020,LA COLINA,-61.5348487870647,-37.3607690235166,Localidad simple,INDEC,60322.0,6322.0
6322030,LAS MARTINETAS,-61.1220424031556,-37.1980813542863,Localidad simple,INDEC,60322.0,6322.0
6322040,LIBANO,-61.2865750087495,-37.53362138441,Localidad simple,INDEC,60322.0,6322.0
6322050,PONTAUT,-61.3230957170244,-37.7317699033739,Localidad simple,INDEC,60322.0,6322.0
6329010,GENERAL HORNOS,-58.9172215319327,-34.8937763345299,Localidad simple,INDEC,60329.0,6329.0
6329020,GENERAL LAS HERAS,-58.9453407851291,-34.9267739074255,Localidad simple,INDEC,60329.0,6329.0
6329030,LA CHOZA,-59.1095647693247,-34.7829908276155,Localidad simple,INDEC,60329.0,6329.0
6329050,PLOMER,-59.0279756935744,-34.7941193667757,Localidad simple,INDEC,60329.0,6329.0
6329060,VILLARS,-58.9422589402025,-34.8300241949658,Localidad simple,INDEC,60329.0,6329.0
6336020,GENERAL LAVALLE,-56.9433553335053,-36.4080851872455,Localidad simple,INDEC,60336.0,6336.0
6336030,PAVON,-56.7598433617574,-36.7089537726649,Localidad simple,INDEC,60336.0,6336.0
6343010,BARRIO RIO SALADO,-58.447313612508,-35.6936377582584,Localidad simple,INDEC,60343.0,6343.0
6343020,LOMA VERDE,-58.4041701894263,-35.2747490125694,Localidad simple,INDEC,60343.0,6343.0
6343030,RANCHOS,-58.3184247148652,-35.5173520233652,Localidad simple,INDEC,60343.0,6343.0
6343040,VILLANUEVA,-58.4350923167562,-35.6776271050908,Localidad simple,INDEC,60343.0,6343.0
6351010,COLONIA SAN RICARDO,-61.9280141749282,-34.4162137301573,Localidad simple,INDEC,60351.0,6351.0
6351020,GENERAL PINTO,-61.8900674920122,-34.764155990724,Localidad simple,INDEC,60351.0,6351.0
6351030,GERMANIA,-62.0518306894073,-34.5761118332769,Localidad simple,INDEC,60351.0,6351.0
6351040,VILLA FRANCIA,-62.2011090686366,-34.7913160212074,Localidad simple,INDEC,60351.0,6351.0
6351050,VILLA ROTH,-62.1710489234118,-34.5798302278832,Localidad simple,INDEC,60351.0,6351.0
6357020,BARRIO EL BOQUERON,-57.7995485049706,-38.0297229162982,Localidad simple,INDEC,60357.0,6357.0
6357050,BARRIO LA GLORIA,-57.7858860640391,-37.9068268303117,Localidad simple,INDEC,60357.0,6357.0
6357060,BARRIO SANTA PAULA,-57.683162032898,-37.9317157840639,Localidad simple,INDEC,60357.0,6357.0
6357070,BATAN,-57.7085500402678,-38.0086211557,Localidad simple,INDEC,60357.0,6357.0
6357080,CHAPADMALAL,-57.6513390003209,-38.1757779275595,Localidad simple,INDEC,60357.0,6357.0
6357090,EL MARQUESADO,-57.7634180779219,-38.2369312519788,Componente de localidad compuesta,INDEC,60357.0,6357.0
6357100,ESTACION CHAPADMALAL,-57.7129897398616,-38.036727731373,Localidad simple,INDEC,60357.0,6357.0
6357110,MAR DEL PLATA,-57.547532938743,-37.9988640075371,Localidad simple,INDEC,60357.0,6357.0
6357120,SIERRA DE LOS PADRES,-57.7715971022228,-37.954166706805,Localidad simple,INDEC,60357.0,6357.0
6364030,GENERAL RODRIGUEZ,-58.950282039134,-34.6079239021062,Componente de localidad compuesta,INDEC,60364.0,6364.0
6371010,GENERAL SAN MARTIN,-58.5349543497109,-34.5696533775117,Componente de localidad compuesta,INDEC,60371.0,6371.0
6385010,BAIGORRITA,-60.9889526585307,-34.7472686783062,Localidad simple,INDEC,60385.0,6385.0
6385020,LA DELFINA,-61.1588643543904,-34.9437720137007,Localidad simple,INDEC,60385.0,6385.0
6385030,LOS TOLDOS,-61.0381497866181,-35.0010365651503,Localidad simple,INDEC,60385.0,6385.0
6385040,SAN EMILIO,-60.8647685857183,-35.0319914044113,Localidad simple,INDEC,60385.0,6385.0
6385050,ZAVALIA,-61.0044538243488,-34.8949208760254,Localidad simple,INDEC,60385.0,6385.0
6392010,BANDERALO,-63.3741563457185,-35.0124666610174,Localidad simple,INDEC,60392.0,6392.0
6392020,CANADA SECA,-62.9618553806295,-34.4155054560621,Localidad simple,INDEC,60392.0,6392.0
6392040,EMILIO V. BUNGE,-63.1960964862342,-34.7798328261907,Localidad simple,INDEC,60392.0,6392.0
6392060,MASSEY,-63.1218876844045,-35.0490892294374,Localidad simple,INDEC,60392.0,6392.0
6392070,PICHINCHA,-62.3516395240412,-34.5804516676438,Localidad simple,INDEC,60392.0,6392.0
6392080,PIEDRITAS,-62.9846965760316,-34.771104540922,Localidad simple,INDEC,60392.0,6392.0
6392090,SANTA ELEODORA,-62.6957932681386,-34.6921180067125,Localidad simple,INDEC,60392.0,6392.0
6392100,SANTA REGINA,-63.1732728724567,-34.548335663977,Localidad simple,INDEC,60392.0,6392.0
6392110,VILLA SABOYA,-62.649344456796,-34.4607916334895,Localidad simple,INDEC,60392.0,6392.0
6399010,ARROYO VENADO,-62.5391482291111,-37.0864662845331,Localidad simple,INDEC,60399.0,6399.0
6399020,CASBAS,-62.5017754084549,-36.7580953396186,Localidad simple,INDEC,60399.0,6399.0
6399030,GARRE,-62.5981120377825,-36.5604378772819,Localidad simple,INDEC,60399.0,6399.0
6399040,GUAMINI,-62.4166857296556,-37.0120881308673,Localidad simple,INDEC,60399.0,6399.0
6399050,LAGUNA ALSINA,-62.2451480754422,-36.80905243808,Localidad simple,INDEC,60399.0,6399.0
6406010,HENDERSON,-61.7178401805261,-36.2994630370091,Localidad simple,INDEC,60406.0,6406.0
6406020,HERRERA VEGAS,-61.4112500767202,-36.0883254041476,Localidad simple,INDEC,60406.0,6406.0
6408010,HURLINGHAM,-58.6334584554374,-34.5926049478957,Componente de localidad compuesta,INDEC,60408.0,6408.0
6410010,ITUZAINGO,-58.6660777676772,-34.6625047224141,Componente de localidad compuesta,INDEC,60410.0,6410.0
6412010,JOSE C. PAZ,-58.7497681367601,-34.5193349747122,Componente de localidad compuesta,INDEC,60412.0,6412.0
6413010,AGUSTIN ROCA,-60.8648956546313,-34.508084406003,Localidad simple,INDEC,60413.0,6413.0
6413020,AGUSTINA,-61.067072329925,-34.4607068571169,Localidad simple,INDEC,60413.0,6413.0
6413030,BALNEARIO LAGUNA DE GOMEZ,-61.0183645929666,-34.6606435780718,Localidad simple,INDEC,60413.0,6413.0
6413040,FORTIN TIBURCIO,-61.1310781728463,-34.3467322372427,Localidad simple,INDEC,60413.0,6413.0
6413055,PARAJE LA AGRARIA,-60.8466681579607,-34.6564145153102,Localidad simple,INDEC,60413.0,6413.0
6413060,LAPLACETTE,-61.1553171474145,-34.7245238530675,Localidad simple,INDEC,60413.0,6413.0
6413070,MORSE,-60.8419122487126,-34.7608898130707,Localidad simple,INDEC,60413.0,6413.0
6413080,SAFORCADA,-61.0747308195452,-34.5752591285936,Localidad simple,INDEC,60413.0,6413.0
6420010,LAS TONINAS,-56.7004352579533,-36.4883976285615,Localidad simple,INDEC,60420.0,6420.0
6420020,MAR DE AJO - SAN BERNARDO,-56.6771596535959,-36.7234307065769,Localidad simple,INDEC,60420.0,6420.0
6420030,SAN CLEMENTE DEL TUYU,-56.723944139417,-36.3532388310754,Componente de localidad compuesta,INDEC,60420.0,6420.0
6420040,SANTA TERESITA - MAR DEL TUYU,-56.6926713688296,-36.577496173436,Localidad simple,INDEC,60420.0,6420.0
6427010,LA MATANZA,-58.5603685341933,-34.6764437241804,Componente de localidad compuesta,INDEC,60427.0,6427.0
6434010,LANUS,-58.3910857563038,-34.706359523865,Componente de localidad compuesta,INDEC,60434.0,6434.0
6441010,COUNTRY CLUB EL RODEO,-58.1393275732941,-35.0794688053886,Localidad simple,INDEC,60441.0,6441.0
6441020,IGNACIO CORREAS,-57.8440249586726,-35.0345600341406,Localidad simple,INDEC,60441.0,6441.0
6441030,LA PLATA,-57.9543916496992,-34.9220666561801,Componente de localidad compuesta,INDEC,60441.0,6441.0
6441040,LOMAS DE COPELLO,-57.8409385980166,-34.9520385659845,Localidad simple,INDEC,60441.0,6441.0
6441050,RUTA SOL,-58.1732652389706,-34.9437333541431,Componente de localidad compuesta,INDEC,60441.0,6441.0
6448010,LAPRIDA,-60.7970535965801,-37.5467976434903,Localidad simple,INDEC,60448.0,6448.0
6448020,PUEBLO NUEVO,-60.7705546208497,-37.5227045258336,Localidad simple,INDEC,60448.0,6448.0
6448030,PUEBLO SAN JORGE,-60.9621658450441,-37.2298626892886,Localidad simple,INDEC,60448.0,6448.0
6455010,CORONEL BOERR,-59.0693547287839,-35.9414440334215,Localidad simple,INDEC,60455.0,6455.0
6455020,EL TRIGO,-59.4063369903389,-35.8815483511482,Localidad simple,INDEC,60455.0,6455.0
6455030,LAS FLORES,-59.1004659218434,-36.0154969145348,Localidad simple,INDEC,60455.0,6455.0
6455040,PARDO,-59.3662916338311,-36.2437580460508,Localidad simple,INDEC,60455.0,6455.0
6462010,ALBERDI VIEJO,-61.8448787838164,-34.4418003349,Localidad simple,INDEC,60462.0,6462.0
6462020,EL DORADO,-61.5829085058874,-34.6528608747523,Localidad simple,INDEC,60462.0,6462.0
6462030,FORTIN ACHA,-61.5156655267072,-34.3430420274498,Localidad simple,INDEC,60462.0,6462.0
6462040,JUAN BAUTISTA ALBERDI,-61.8121893821736,-34.4387919326349,Localidad simple,INDEC,60462.0,6462.0
6462050,LEANDRO N. ALEM,-61.3911828994839,-34.5217246234597,Localidad simple,INDEC,60462.0,6462.0
6462060,VEDIA,-61.5453447631478,-34.4973984349932,Localidad simple,INDEC,60462.0,6462.0
6469010,ARENAZA,-61.7729116988591,-34.9846043002154,Localidad simple,INDEC,60469.0,6469.0
6469020,BAYAUCA,-61.2895451446375,-34.8710511337121,Localidad simple,INDEC,60469.0,6469.0
6469030,BERMUDEZ,-61.3250128810539,-34.6966047108596,Localidad simple,INDEC,60469.0,6469.0
6469040,CARLOS SALAS,-61.9949102331932,-35.3913662871435,Localidad simple,INDEC,60469.0,6469.0
6469060,EL TRIUNFO,-61.5163333232821,-35.0882210775847,Localidad simple,INDEC,60469.0,6469.0
6469070,LAS TOSCAS,-61.8055485519284,-35.3649873001768,Localidad simple,INDEC,60469.0,6469.0
6469080,LINCOLN,-61.5291649669285,-34.869042222818,Localidad simple,INDEC,60469.0,6469.0
6469090,PASTEUR,-62.2439028944601,-35.1426386337075,Localidad simple,INDEC,60469.0,6469.0
6469100,ROBERTS,-61.9707859541264,-35.1440875676884,Localidad simple,INDEC,60469.0,6469.0
6469110,TRIUNVIRATO,-61.4657087059048,-34.6758379792472,Localidad simple,INDEC,60469.0,6469.0
6476010,ARENAS VERDES,-58.557322112625,-38.5463782386967,Localidad simple,INDEC,60476.0,6476.0
6476020,LICENCIADO MATIENZO,-58.9120965943061,-37.9097927118145,Localidad simple,INDEC,60476.0,6476.0
6476030,LOBERIA,-58.7822303314999,-38.165273387122,Localidad simple,INDEC,60476.0,6476.0
6476040,PIERES,-58.670580006548,-38.3962306181995,Localidad simple,INDEC,60476.0,6476.0
6476050,SAN MANUEL,-58.8486476710495,-37.7892829007834,Localidad simple,INDEC,60476.0,6476.0
6476060,TAMANGUEYU,-58.7373143964601,-38.2010112434137,Localidad simple,INDEC,60476.0,6476.0
6483010,ANTONIO CARBONI,-59.3449562581802,-35.2033088915799,Localidad simple,INDEC,60483.0,6483.0
6483030,LAGUNA DE LOBOS,-59.1339060011927,-35.2747624905943,Localidad simple,INDEC,60483.0,6483.0
6483040,LOBOS,-59.0957115706922,-35.1858677983922,Localidad simple,INDEC,60483.0,6483.0
6483050,SALVADOR MARIA,-59.1696841440202,-35.3028071422894,Localidad simple,INDEC,60483.0,6483.0
6490010,LOMAS DE ZAMORA,-58.3987660554104,-34.7611602446537,Componente de localidad compuesta,INDEC,60490.0,6490.0
6497020,CARLOS KEEN,-59.2180861330698,-34.4862819813638,Localidad simple,INDEC,60497.0,6497.0
6497025,CLUB DE CAMPO LOS PUENTES,-59.0214105976263,-34.5760126891974,Localidad simple,INDEC,60497.0,6497.0
6497060,LUJAN,-59.109540176033,-34.5706550661631,Localidad simple,INDEC,60497.0,6497.0
6497070,OLIVERA,-59.2533805145177,-34.6265041710141,Localidad simple,INDEC,60497.0,6497.0
6497090,TORRES,-59.1287739002816,-34.4318215080317,Localidad simple,INDEC,60497.0,6497.0
6505010,ATALAYA,-57.5340253600961,-35.0240363457416,Localidad simple,INDEC,60505.0,6505.0
6505020,GENERAL MANSILLA,-57.7469762592144,-35.0816834306862,Localidad simple,INDEC,60505.0,6505.0
6505030,LOS NARANJOS,-57.7036642458572,-34.99655185849,Localidad simple,INDEC,60505.0,6505.0
6505040,MAGDALENA,-57.5172585839911,-35.0806853032506,Localidad simple,INDEC,60505.0,6505.0
6505050,ROBERTO J. PAYRO,-57.651986019808,-35.1799267057869,Localidad simple,INDEC,60505.0,6505.0
6505060,VIEYTES,-57.5757117447539,-35.269568396303,Localidad simple,INDEC,60505.0,6505.0
6511010,LAS ARMAS,-57.8285752273883,-37.0860540989,Localidad simple,INDEC,60511.0,6511.0
6511020,MAIPU,-57.8829166198472,-36.8648514645038,Localidad simple,INDEC,60511.0,6511.0
6511030,SANTO DOMINGO,-57.5860126519926,-36.7137597811284,Localidad simple,INDEC,60511.0,6511.0
6515010,MALVINAS ARGENTINAS,-58.7005058220394,-34.4941030304424,Componente de localidad compuesta,INDEC,60515.0,6515.0
6518020,GENERAL PIRAN,-57.7740148170474,-37.2778606745914,Localidad simple,INDEC,60518.0,6518.0
6518030,LA ARMONIA,-57.6351210747907,-37.774854850113,Localidad simple,INDEC,60518.0,6518.0
6518040,MAR CHIQUITA,-57.4274479339348,-37.7462581727647,Localidad simple,INDEC,60518.0,6518.0
6518050,MAR DE COBO,-57.4521689795217,-37.7711670626007,Localidad simple,INDEC,60518.0,6518.0
6518060,SANTA CLARA DEL MAR,-57.5079699159083,-37.8362727356321,Localidad simple,INDEC,60518.0,6518.0
6518070,VIVORATA,-57.6670967441538,-37.6627994476991,Localidad simple,INDEC,60518.0,6518.0
6525010,BARRIO SANTA ROSA,-58.78292863718,-34.953080822173,Localidad simple,INDEC,60525.0,6525.0
6532005,GOLDNEY,-59.288213732192,-34.6029546709308,Localidad simple,INDEC,60532.0,6532.0
6532010,GOWLAND,-59.3523186300108,-34.652429281715,Localidad simple,INDEC,60532.0,6532.0
6532020,MERCEDES,-59.4295981722688,-34.6521715354886,Localidad simple,INDEC,60532.0,6532.0
6532030,JORGE BORN,-59.3194428313109,-34.6989555549409,Localidad simple,INDEC,60532.0,6532.0
6539010,MERLO,-58.7284902221094,-34.6673332854112,Componente de localidad compuesta,INDEC,60539.0,6539.0
6547020,SAN MIGUEL DEL MONTE,-58.8094598355672,-35.4391643240479,Localidad simple,INDEC,60547.0,6547.0
6547030,ZENON VIDELA DORNA,-58.8855911917932,-35.5447734044526,Localidad simple,INDEC,60547.0,6547.0
6553010,BALNEARIO SAUCE GRANDE,-61.2152015930805,-38.9953576913349,Localidad simple,INDEC,60553.0,6553.0
6553020,MONTE HERMOSO,-61.3005457486605,-38.9815065384254,Localidad simple,INDEC,60553.0,6553.0
6560010,MORENO,-58.787037631993,-34.6484562002299,Componente de localidad compuesta,INDEC,60560.0,6560.0
6568010,MORON,-58.6221005158761,-34.6485927855745,Componente de localidad compuesta,INDEC,60568.0,6568.0
6574020,LAS MARIANAS,-59.5131011825281,-35.0539263781559,Localidad simple,INDEC,60574.0,6574.0
6574030,NAVARRO,-59.2774163163898,-35.0036066018879,Localidad simple,INDEC,60574.0,6574.0
6574040,VILLA MOLL,-59.651945539681,-35.0782490606759,Localidad simple,INDEC,60574.0,6574.0
6581010,CLARAZ,-59.2866977775565,-37.8918269607856,Localidad simple,INDEC,60581.0,6581.0
6581025,ENERGIA,-59.3364566671065,-38.5580125335608,Localidad simple,INDEC,60581.0,6581.0
6581030,JUAN N. FERNANDEZ,-59.263498834782,-38.0091787783017,Localidad simple,INDEC,60581.0,6581.0
6581040,NECOCHEA - QUEQUEN,-58.7383396197417,-38.5556106716458,Localidad simple,INDEC,60581.0,6581.0
6581050,NICANOR OLIVERA,-59.202754253612,-38.2846361959918,Localidad simple,INDEC,60581.0,6581.0
6581060,RAMON SANTAMARINA,-59.3311154416146,-38.4503897333336,Localidad simple,INDEC,60581.0,6581.0
6588010,ALFREDO DEMARCHI,-61.4072542128,-35.2929819536873,Localidad simple,INDEC,60588.0,6588.0
6588020,CARLOS MARIA NAON,-60.8251358750153,-35.239499381663,Localidad simple,INDEC,60588.0,6588.0
6588030,12 DE OCTUBRE,-60.9182929927645,-35.607730780146,Localidad simple,INDEC,60588.0,6588.0
6588040,DUDIGNAC,-60.7098962799093,-35.6511928511123,Localidad simple,INDEC,60588.0,6588.0
6588050,LA AURORA,-61.210566820487,-35.4079467934431,Localidad simple,INDEC,60588.0,6588.0
6588060,MANUEL B. GONNET,-60.9989487976537,-35.5201414507378,Localidad simple,INDEC,60588.0,6588.0
6588070,MARCELINO UGARTE,-60.7453446826815,-35.3462662593318,Localidad simple,INDEC,60588.0,6588.0
6588080,MOREA,-60.5605940553161,-35.5563880098445,Localidad simple,INDEC,60588.0,6588.0
6588100,9 DE JULIO,-60.8843433362718,-35.4447435053964,Localidad simple,INDEC,60588.0,6588.0
6588110,PATRICIOS,-60.7174384712323,-35.4395526972374,Localidad simple,INDEC,60588.0,6588.0
6588120,VILLA FOURNIER,-60.8647207106461,-35.4989239490928,Localidad simple,INDEC,60588.0,6588.0
6595010,BLANCAGRANDE,-60.8824549132602,-36.5328887082639,Localidad simple,INDEC,60595.0,6595.0
6595030,COLONIA NIEVAS,-60.0816424703999,-36.8641370257955,Localidad simple,INDEC,60595.0,6595.0
6595040,COLONIA SAN MIGUEL,-60.1108954083182,-36.9495659791886,Localidad simple,INDEC,60595.0,6595.0
6595050,ESPIGAS,-60.6730694647,-36.4122732396335,Localidad simple,INDEC,60595.0,6595.0
6595060,HINOJO,-60.1771940245472,-36.8805120719062,Localidad simple,INDEC,60595.0,6595.0
6595070,OLAVARRIA,-60.3180046559577,-36.8920935788859,Localidad simple,INDEC,60595.0,6595.0
6595080,RECALDE,-61.0845040269814,-36.6515016172821,Localidad simple,INDEC,60595.0,6595.0
6595090,SANTA LUISA,-60.4099303899854,-37.128965369352,Localidad simple,INDEC,60595.0,6595.0
6595100,SIERRA CHICA,-60.2234271381196,-36.8432382225239,Localidad simple,INDEC,60595.0,6595.0
6595110,SIERRAS BAYAS,-60.1616034851477,-36.9320807590695,Localidad simple,INDEC,60595.0,6595.0
6595120,VILLA ALFREDO FORTABAT,-60.2790828437139,-36.9802714637124,Localidad simple,INDEC,60595.0,6595.0
6595130,VILLA LA SERRANIA,-60.3108081181748,-36.9903632120511,Localidad simple,INDEC,60595.0,6595.0
6602010,BAHIA SAN BLAS,-62.2380643077459,-40.5602246137406,Localidad simple,INDEC,60602.0,6602.0
6602020,CARDENAL CAGLIERO,-62.7575972084464,-40.6522000086693,Localidad simple,INDEC,60602.0,6602.0
6602030,CARMEN DE PATAGONES,-62.984754269904,-40.797298324401,Componente de localidad compuesta,INDEC,60602.0,6602.0
6602040,JOSE B. CASAS,-62.5449343513868,-40.4363643935514,Localidad simple,INDEC,60602.0,6602.0
6602050,JUAN A. PRADERE,-62.6510470779021,-39.5993801239416,Localidad simple,INDEC,60602.0,6602.0
6602060,STROEDER,-62.6205163469861,-40.1854869993736,Localidad simple,INDEC,60602.0,6602.0
6602070,VILLALONGA,-62.6188702678852,-39.9151387867694,Localidad simple,INDEC,60602.0,6602.0
6609010,CAPITAN CASTRO,-62.2240579143551,-35.913692884071,Localidad simple,INDEC,60609.0,6609.0
6609020,SAN ESTEBAN,-61.7439272931387,-35.7327373193414,Localidad simple,INDEC,60609.0,6609.0
6609030,FRANCISCO MADERO,-62.0693918423116,-35.8483065194137,Localidad simple,INDEC,60609.0,6609.0
6609035,INOCENCIO SOSA,-62.1142777365421,-35.7184196474894,Localidad simple,INDEC,60609.0,6609.0
6609040,JUAN JOSE PASO,-62.2962123802194,-35.8524740557321,Localidad simple,INDEC,60609.0,6609.0
6609050,MAGDALA,-61.7254747841859,-36.0846707903374,Localidad simple,INDEC,60609.0,6609.0
6609060,MONES CAZON,-62.0069944091925,-36.2301776476091,Localidad simple,INDEC,60609.0,6609.0
6609080,PEHUAJO,-61.8988207561037,-35.8123030689596,Localidad simple,INDEC,60609.0,6609.0
6609090,SAN BERNARDO,-61.6477830181101,-35.7137365347985,Localidad simple,INDEC,60609.0,6609.0
6616010,BOCAYUVA,-63.0771172663474,-36.2079529825985,Localidad simple,INDEC,60616.0,6616.0
6616020,DE BARY,-63.2611533171506,-36.3416806655424,Localidad simple,INDEC,60616.0,6616.0
6616030,PELLEGRINI,-63.1652861097016,-36.2697352282386,Localidad simple,INDEC,60616.0,6616.0
6623010,ACEVEDO,-60.4408373865386,-33.755665348987,Localidad simple,INDEC,60623.0,6623.0
6623020,FONTEZUELA,-60.4628650932084,-33.9138392371386,Localidad simple,INDEC,60623.0,6623.0
6623030,GUERRICO,-60.400686593861,-33.6745849638169,Localidad simple,INDEC,60623.0,6623.0
6623040,JUAN A. DE LA PENA,-60.4864895356948,-33.8322767381075,Localidad simple,INDEC,60623.0,6623.0
6623050,JUAN ANCHORENA,-60.3829034809436,-33.9263378592898,Localidad simple,INDEC,60623.0,6623.0
6623060,LA VIOLETA,-60.1701773086428,-33.7347851403163,Localidad simple,INDEC,60623.0,6623.0
6623070,MANUEL OCAMPO,-60.6492429333859,-33.7647232673599,Localidad simple,INDEC,60623.0,6623.0
6623080,MARIANO BENITEZ,-60.5842599045876,-33.7090270411103,Localidad simple,INDEC,60623.0,6623.0
6623090,MARIANO H. ALFONZO,-60.8383550657724,-33.9149979004605,Localidad simple,INDEC,60623.0,6623.0
6623100,PERGAMINO,-60.5716400794952,-33.8949900563191,Localidad simple,INDEC,60623.0,6623.0
6623110,PINZON,-60.7316480040989,-33.9947211174052,Localidad simple,INDEC,60623.0,6623.0
6623130,VILLA ANGELICA,-60.7084372635626,-33.6647037443081,Localidad simple,INDEC,60623.0,6623.0
6623140,VILLA SAN JOSE,-60.4162716627136,-34.0906695795004,Componente de localidad compuesta,INDEC,60623.0,6623.0
6630020,PILA,-58.1427778873885,-36.0014746137723,Localidad simple,INDEC,60630.0,6630.0
6638040,PILAR,-58.9147241864112,-34.4564820970471,Componente de localidad compuesta,INDEC,60638.0,6638.0
6644010,PINAMAR,-56.8484282535998,-37.1035436553232,Localidad simple,INDEC,60644.0,6644.0
6648010,PRESIDENTE PERON,-58.378782412589,-34.9165952571677,Componente de localidad compuesta,INDEC,60648.0,6648.0
6651010,AZOPARDO,-62.9006764415683,-37.7017920523646,Localidad simple,INDEC,60651.0,6651.0
6651020,BORDENAVE,-63.0425144041162,-37.8028181597411,Localidad simple,INDEC,60651.0,6651.0
6651030,DARREGUEIRA,-63.1595663902141,-37.6857562622736,Localidad simple,INDEC,60651.0,6651.0
6651040,17 DE AGOSTO,-62.9360284730803,-37.9086924428976,Localidad simple,INDEC,60651.0,6651.0
6651050,ESTELA,-62.9129041375994,-38.1080950084855,Localidad simple,INDEC,60651.0,6651.0
6651060,FELIPE SOLA,-62.8186936682637,-38.005992834739,Localidad simple,INDEC,60651.0,6651.0
6651070,LOPEZ LECUBE,-62.7254849373447,-38.1171190117962,Localidad simple,INDEC,60651.0,6651.0
6651080,PUAN,-62.7652275731166,-37.542613502113,Localidad simple,INDEC,60651.0,6651.0
6651100,VILLA CASTELAR,-62.8051325654187,-37.3905464925651,Localidad simple,INDEC,60651.0,6651.0
6651110,VILLA IRIS,-63.2320511809102,-38.1693097057753,Localidad simple,INDEC,60651.0,6651.0
6655030,PIPINAS,-57.3285887617048,-35.5312670691699,Localidad simple,INDEC,60655.0,6655.0
6655040,PUNTA INDIO,-57.2360072391524,-35.2808352898088,Localidad simple,INDEC,60655.0,6655.0
6655010,ALVAREZ JONTE,-57.4490768504218,-35.3227800092544,Localidad simple,INDEC,60655.0,6655.0
6655050,VERONICA,-57.3371601623743,-35.3881552142501,Localidad simple,INDEC,60655.0,6655.0
6665010,EL PARAISO,-59.9791123483107,-33.5679152654444,Localidad simple,INDEC,60665.0,6665.0
6665020,LAS BAHAMAS,-59.9895563465816,-33.6366100825527,Localidad simple,INDEC,60665.0,6665.0
6665030,PEREZ MILLAN,-60.0927343667154,-33.7674497804832,Localidad simple,INDEC,60665.0,6665.0
6665040,RAMALLO,-60.0072209741607,-33.4877021169888,Localidad simple,INDEC,60665.0,6665.0
6665050,VILLA GENERAL SAVIO,-60.1451316522293,-33.4352672179447,Localidad simple,INDEC,60665.0,6665.0
6665060,VILLA RAMALLO,-60.0650138035308,-33.502293213764,Localidad simple,INDEC,60665.0,6665.0
6672010,RAUCH,-59.0871114029954,-36.7755035485732,Localidad simple,INDEC,60672.0,6672.0
6679010,AMERICA,-62.9763759840765,-35.4903412429492,Localidad simple,INDEC,60679.0,6679.0
6679020,FORTIN OLAVARRIA,-63.02303327525,-35.7048848499519,Localidad simple,INDEC,60679.0,6679.0
6679030,GONZALEZ MORENO,-63.3815800402316,-35.5576529256075,Localidad simple,INDEC,60679.0,6679.0
6679040,MIRA PAMPA,-63.3742010687724,-35.8703867348478,Localidad simple,INDEC,60679.0,6679.0
6679050,ROOSEVELT,-63.2898118317476,-35.8466320155134,Localidad simple,INDEC,60679.0,6679.0
6679060,SAN MAURICIO,-63.1882154861262,-35.5118022821456,Localidad simple,INDEC,60679.0,6679.0
6686010,LA BEBA,-61.0128711169321,-34.1544387870912,Localidad simple,INDEC,60686.0,6686.0
6686030,LOS INDIOS,-60.6523710265627,-34.3735696107802,Localidad simple,INDEC,60686.0,6686.0
6686040,RAFAEL OBLIGADO,-60.7845693256007,-34.3588132488617,Localidad simple,INDEC,60686.0,6686.0
6686050,ROBERTO CANO,-60.6672564006968,-34.0876515179763,Localidad simple,INDEC,60686.0,6686.0
6686060,ROJAS,-60.7332636467146,-34.1961600446015,Localidad simple,INDEC,60686.0,6686.0
6686070,SOL DE MAYO,-60.871777342098,-34.2689448512236,Localidad simple,INDEC,60686.0,6686.0
6686080,VILLA MANUEL POMAR,-60.9379380238883,-33.9159508805463,Componente de localidad compuesta,INDEC,60686.0,6686.0
6700010,ARROYO CORTO,-62.3116837747426,-37.5129179734769,Localidad simple,INDEC,60700.0,6700.0
6700020,COLONIA SAN MARTIN,-62.3326095560459,-37.9769152091142,Localidad simple,INDEC,60700.0,6700.0
6700030,DUFAUR,-62.284864272698,-37.9428223013645,Localidad simple,INDEC,60700.0,6700.0
6700040,ESPARTILLAR,-62.4297386825705,-37.3604343942367,Componente de localidad compuesta,INDEC,60700.0,6700.0
6700050,GOYENA,-62.6071296330023,-37.7192518502325,Localidad simple,INDEC,60700.0,6700.0
6700055,LAS ENCADENADAS,-62.4704140736323,-38.0361082716296,Localidad simple,INDEC,60700.0,6700.0
6700060,PIGUE,-62.4057728759142,-37.6063896033626,Localidad simple,INDEC,60700.0,6700.0
6700070,SAAVEDRA,-62.3506328041255,-37.7636402199499,Localidad simple,INDEC,60700.0,6700.0
6707010,ALVAREZ DE TOLEDO,-59.6292383440582,-35.6391609182127,Localidad simple,INDEC,60707.0,6707.0
6707030,CAZON,-59.6645037628687,-35.576803202395,Localidad simple,INDEC,60707.0,6707.0
6707040,DEL CARRIL,-59.5158202035334,-35.5127172285926,Localidad simple,INDEC,60707.0,6707.0
6707050,POLVAREDAS,-59.5079734849201,-35.5939072311549,Localidad simple,INDEC,60707.0,6707.0
6714010,ARROYO DULCE,-60.4061551794069,-34.1024332833136,Componente de localidad compuesta,INDEC,60714.0,6714.0
6714020,BERDIER,-60.2605725409335,-34.3987726587976,Localidad simple,INDEC,60714.0,6714.0
6714030,GAHAN,-60.0992736191527,-34.3380744009945,Localidad simple,INDEC,60714.0,6714.0
6714040,INES INDART,-60.5436825925267,-34.3994163305262,Localidad simple,INDEC,60714.0,6714.0
6714050,LA INVENCIBLE,-60.3853645216588,-34.2687422037239,Localidad simple,INDEC,60714.0,6714.0
6714060,SALTO,-60.2546244496406,-34.2921598652878,Localidad simple,INDEC,60714.0,6714.0
6721010,QUENUMA,-63.0876229573465,-36.5689908284906,Localidad simple,INDEC,60721.0,6721.0
6721020,SALLIQUELO,-62.9599573443115,-36.7511653813281,Localidad simple,INDEC,60721.0,6721.0
6728010,AZCUENAGA,-59.3745991110996,-34.3637910907784,Localidad simple,INDEC,60728.0,6728.0
6728020,CUCULLU,-59.3622553297801,-34.4460870677999,Localidad simple,INDEC,60728.0,6728.0
6728030,FRANKLIN,-59.6301795182439,-34.6103908719397,Localidad simple,INDEC,60728.0,6728.0
6728040,SAN ANDRES DE GILES,-59.4451673563949,-34.4459080814748,Localidad simple,INDEC,60728.0,6728.0
6728050,SOLIS,-59.3250547278241,-34.2989712949513,Localidad simple,INDEC,60728.0,6728.0
6728060,VILLA ESPIL,-59.3372661316763,-34.506681404481,Localidad simple,INDEC,60728.0,6728.0
6735010,DUGGAN,-59.6357055338083,-34.2071973030208,Localidad simple,INDEC,60735.0,6735.0
6735020,SAN ANTONIO DE ARECO,-59.4708634797005,-34.2503763113877,Localidad simple,INDEC,60735.0,6735.0
6742010,BALNEARIO SAN CAYETANO,-59.429204589717,-38.7481815016452,Localidad simple,INDEC,60742.0,6742.0
6742020,OCHANDIO,-59.7935349347064,-38.3598244506044,Localidad simple,INDEC,60742.0,6742.0
6742030,SAN CAYETANO,-59.6063826058005,-38.346970946847,Localidad simple,INDEC,60742.0,6742.0
6749010,SAN FERNANDO,-58.5580198721145,-34.4418003197061,Componente de localidad compuesta,INDEC,60749.0,6749.0
6756010,SAN ISIDRO,-58.5109710038312,-34.4721541217739,Componente de localidad compuesta,INDEC,60756.0,6756.0
6760010,SAN MIGUEL,-58.712723882421,-34.5438144507937,Componente de localidad compuesta,INDEC,60760.0,6760.0
6763010,CONESA,-60.3541264450857,-33.5962124822607,Localidad simple,INDEC,60763.0,6763.0
6763020,EREZCANO,-60.3174454958625,-33.5232449410318,Localidad simple,INDEC,60763.0,6763.0
6763030,GENERAL ROJO,-60.2874270636731,-33.4758683523603,Localidad simple,INDEC,60763.0,6763.0
6763040,LA EMILIA,-60.31414686162,-33.3504137209751,Localidad simple,INDEC,60763.0,6763.0
6763050,SAN NICOLAS DE LOS ARROYOS,-60.2183974475905,-33.334698916599,Componente de localidad compuesta,INDEC,60763.0,6763.0
6763060,VILLA ESPERANZA,-60.2605874904382,-33.422326147095,Localidad simple,INDEC,60763.0,6763.0
6770010,GOBERNADOR CASTRO,-59.8663408291494,-33.6605787290919,Localidad simple,INDEC,60770.0,6770.0
6770015,INGENIERO MONETA,-59.7482330053997,-33.9314631330704,Localidad simple,INDEC,60770.0,6770.0
6770020,OBLIGADO,-59.8199792397796,-33.5965558617631,Localidad simple,INDEC,60770.0,6770.0
6770030,PUEBLO DOYLE,-59.8187532271261,-33.9050057189811,Localidad simple,INDEC,60770.0,6770.0
6770050,SAN PEDRO,-59.6668951027895,-33.6791252253366,Localidad simple,INDEC,60770.0,6770.0
6770060,SANTA LUCIA,-59.8753284459434,-33.8794559527188,Localidad simple,INDEC,60770.0,6770.0
6778020,SAN VICENTE,-58.4205914420453,-35.0240394387399,Componente de localidad compuesta,INDEC,60778.0,6778.0
6784020,SUIPACHA,-59.6879181821818,-34.7712617839883,Localidad simple,INDEC,60784.0,6784.0
6791010,DE LA CANAL,-59.105380206456,-37.1293125663243,Localidad simple,INDEC,60791.0,6791.0
6791030,GARDEY,-59.3630004748452,-37.2823323375205,Localidad simple,INDEC,60791.0,6791.0
6791040,MARIA IGNACIA,-59.5093354449092,-37.4029073074266,Localidad simple,INDEC,60791.0,6791.0
6791050,TANDIL,-59.1310691770429,-37.3238849060878,Localidad simple,INDEC,60791.0,6791.0
6798010,CROTTO,-60.1711185359918,-36.5774103919485,Localidad simple,INDEC,60798.0,6798.0
6798020,TAPALQUE,-60.0247443487218,-36.3573669882462,Localidad simple,INDEC,60798.0,6798.0
6798030,VELLOSO,-59.6527146246681,-36.1215309084723,Localidad simple,INDEC,60798.0,6798.0
6805010,TIGRE,-58.5810472651652,-34.4256910710843,Componente de localidad compuesta,INDEC,60805.0,6805.0
6819010,CHASICO,-62.6424099899733,-38.3352258409739,Localidad simple,INDEC,60819.0,6819.0
6819020,SALDUNGARAY,-61.7678925154653,-38.2028131038038,Localidad simple,INDEC,60819.0,6819.0
6819030,SIERRA DE LA VENTANA,-61.7956860399239,-38.1366716139365,Componente de localidad compuesta,INDEC,60819.0,6819.0
6819040,TORNQUIST,-62.2218091270044,-38.0989983131157,Localidad simple,INDEC,60819.0,6819.0
6819060,LA GRUTA,-62.0782618310425,-38.0568266332177,Localidad simple,INDEC,60819.0,6819.0
6819070,VILLA VENTANA,-61.9311383483155,-38.0795765714478,Localidad simple,INDEC,60819.0,6819.0
6826010,BERUTTI,-62.5126328995628,-35.8580311359835,Localidad simple,INDEC,60826.0,6826.0
6826020,GIRODIAS,-62.3569660936558,-36.367451804132,Localidad simple,INDEC,60231.0,6826.0
6826030,LA CARRETA,-62.2245641400875,-36.1964811594442,Localidad simple,INDEC,60826.0,6826.0
6826040,30 DE AGOSTO,-62.5453088654651,-36.2779720057322,Localidad simple,INDEC,60826.0,6826.0
6826050,TRENQUE LAUQUEN,-62.7323099655579,-35.9746951559846,Localidad simple,INDEC,60826.0,6826.0
6826060,TRONGE,-62.4871229040303,-36.4603092402658,Localidad simple,INDEC,60826.0,6826.0
6833010,BALNEARIO ORENSE,-59.7382989446997,-38.8079580951783,Localidad simple,INDEC,60833.0,6833.0
6833020,CLAROMECO,-60.0730577260656,-38.8574731904502,Localidad simple,INDEC,60833.0,6833.0
6833030,COPETONAS,-60.4519655195991,-38.7227403438549,Localidad simple,INDEC,60833.0,6833.0
6833050,MICAELA CASCALLARES,-60.4684232796744,-38.4926790060303,Localidad simple,INDEC,60833.0,6833.0
6833060,ORENSE,-59.7764287092023,-38.6855169253542,Localidad simple,INDEC,60833.0,6833.0
6833070,RETA,-60.3434097916689,-38.8970805514765,Localidad simple,INDEC,60833.0,6833.0
6833080,SAN FRANCISCO DE BELLOCQ,-60.0141786926695,-38.6931705173547,Localidad simple,INDEC,60833.0,6833.0
6833090,SAN MAYOL,-60.0258421214842,-38.3177365227323,Localidad simple,INDEC,60833.0,6833.0
6833100,TRES ARROYOS,-60.2755588939396,-38.3771785795114,Localidad simple,INDEC,60833.0,6833.0
6833110,VILLA RODRIGUEZ,-60.2324995777757,-38.3125817693893,Localidad simple,INDEC,60833.0,6833.0
6840010,TRES DE FEBRERO,-58.5609615725508,-34.6048497158582,Componente de localidad compuesta,INDEC,60840.0,6840.0
6847010,INGENIERO THOMPSON,-62.9109612139671,-36.6102541131892,Localidad simple,INDEC,60847.0,6847.0
6854010,AGUSTIN MOSCONI,-60.5590634621789,-35.7392169542026,Localidad simple,INDEC,60854.0,6854.0
6854020,DEL VALLE,-60.7316089512944,-35.8973453887603,Localidad simple,INDEC,60854.0,6854.0
6854030,ERNESTINA,-59.5575034078873,-35.2702340519789,Localidad simple,INDEC,60854.0,6854.0
6854040,GOBERNADOR UGARTE,-60.0813577815068,-35.1643973648092,Localidad simple,INDEC,60854.0,6854.0
6854050,LUCAS MONTEVERDE,-59.9880647932831,-35.4838272164734,Localidad simple,INDEC,60854.0,6854.0
6854060,NORBERTO DE LA RIESTRA,-59.7719327250509,-35.2727788695321,Localidad simple,INDEC,60854.0,6854.0
6854070,PEDERNALES,-59.6306574695383,-35.2666085074293,Localidad simple,INDEC,60854.0,6854.0
6854080,SAN ENRIQUE,-60.3546454811901,-35.7785028686085,Localidad simple,INDEC,60854.0,6854.0
6854090,VALDES,-60.4672591673156,-35.6488128268596,Localidad simple,INDEC,60854.0,6854.0
6854100,25 DE MAYO,-60.1731209454056,-35.4339385892588,Localidad simple,INDEC,60854.0,6854.0
6861010,VICENTE LOPEZ,-58.4816394249184,-34.5085008473315,Componente de localidad compuesta,INDEC,60861.0,6861.0
6868010,MAR AZUL,-57.0313877628295,-37.3359116629584,Localidad simple,INDEC,60868.0,6868.0
6868020,VILLA GESELL,-56.9707267624406,-37.24647046985,Localidad simple,INDEC,60868.0,6868.0
6875010,ARGERICH,-62.6025276771033,-38.7686560837266,Localidad simple,INDEC,60875.0,6875.0
6875025,COUNTRY LOS MEDANOS,-62.7387418858309,-38.8468445915571,Localidad simple,INDEC,60875.0,6875.0
6875030,HILARIO ASCASUBI,-62.6477900877351,-39.3758602632663,Localidad simple,INDEC,60875.0,6875.0
6875050,MAYOR BURATOVICH,-62.6157889589915,-39.2590946793617,Localidad simple,INDEC,60875.0,6875.0
6875060,MEDANOS,-62.6958221431755,-38.825840065805,Localidad simple,INDEC,60875.0,6875.0
6875070,PEDRO LURO,-62.6874317159849,-39.5007767274615,Localidad simple,INDEC,60875.0,6875.0
6875080,TENIENTE ORIGONE,-62.5697137402023,-39.0580586668564,Localidad simple,INDEC,60875.0,6875.0
6882030,ESCALADA,-59.112539983688,-34.160933188334,Localidad simple,INDEC,60882.0,6882.0
6882050,ZARATE,-59.0245572551519,-34.0998630672257,Localidad simple,INDEC,60882.0,6882.0
10007020,COLPES,-65.8260844153652,-28.056472497625,Localidad simple,INDEC,100014.0,10007.0
10007030,EL BOLSON,-65.8884829262542,-27.9038743420396,Localidad simple,INDEC,100028.0,10007.0
10007040,EL RODEO,-65.8738600634115,-28.2141516424861,Localidad simple,INDEC,100007.0,10007.0
10007050,HUAYCAMA,-65.8147464336478,-28.0988458342304,Localidad simple,INDEC,100014.0,10007.0
10007060,LA PUERTA,-65.7863037835082,-28.1764379052117,Localidad simple,INDEC,100014.0,10007.0
10007070,LAS CHACRITAS,-65.9533446470457,-27.6464168267027,Localidad simple,INDEC,100028.0,10007.0
10007080,LAS JUNTAS,-65.8996513641899,-28.1038836314671,Localidad simple,INDEC,100021.0,10007.0
10007090,LOS CASTILLOS,-65.8206857233129,-27.9582295650792,Localidad simple,INDEC,100028.0,10007.0
10007100,LOS TALAS,-65.875829814164,-27.94999754917,Localidad simple,INDEC,100028.0,10007.0
10007110,LOS VARELA,-65.8822302327591,-27.9279942328057,Localidad simple,INDEC,100028.0,10007.0
10007120,SINGUIL,-65.8670660017181,-27.8142168571341,Localidad simple,INDEC,100028.0,10007.0
10014010,ANCASTI,-65.5021019996524,-28.809829766706,Localidad simple,INDEC,100035.0,10014.0
10014020,ANQUINCILA,-65.5495102803337,-28.7545936474404,Localidad simple,INDEC,100035.0,10014.0
10014030,LA CANDELARIA,-65.4106917370235,-28.7207622901373,Localidad simple,INDEC,100035.0,10014.0
10014040,LA MAJADA,-65.5499567687055,-29.0295107636719,Localidad simple,INDEC,100035.0,10014.0
10021010,AMANAO,-66.5156761677031,-27.5275895579827,Localidad simple,INDEC,100049.0,10021.0
10021020,ANDALGALA,-66.3235466394645,-27.5732225954972,Localidad simple,INDEC,100049.0,10021.0
10021030,CHAQUIAGO,-66.3350568927423,-27.5368955481985,Localidad simple,INDEC,100049.0,10021.0
10021040,CHOYA,-66.4034742805443,-27.5210749343604,Localidad simple,INDEC,100049.0,10021.0
10021050,EL ALAMITO,-66.0262150249926,-27.3442239666896,Localidad simple,INDEC,100042.0,10021.0
10021070,EL POTRERO,-66.3434280762552,-27.5162322380357,Localidad simple,INDEC,100049.0,10021.0
10021080,LA AGUADA,-66.3117750484601,-27.534089032104,Localidad simple,INDEC,100049.0,10021.0
10028010,ANTOFAGASTA DE LA SIERRA,-67.4116706391736,-26.0632957365736,Localidad simple,INDEC,100056.0,10028.0
10028030,EL PENON,-67.2590953594946,-26.4377795455164,Localidad simple,INDEC,100056.0,10028.0
10028040,LOS NACIMIENTOS,-67.3912671398198,-25.7592665755338,Localidad simple,INDEC,100056.0,10028.0
10035010,BARRANCA LARGA,-66.7473736733687,-26.9366725902001,Localidad simple,INDEC,100119.0,10035.0
10035020,BELEN,-67.0181224346383,-27.6337582271366,Localidad simple,INDEC,100063.0,10035.0
10035030,CONDOR HUASI,-67.1034365555174,-27.4800253698881,Localidad simple,INDEC,100091.0,10035.0
10035040,CORRAL QUEMADO,-66.9418772140389,-27.1458266170631,Localidad simple,INDEC,100070.0,10035.0
10035050,EL DURAZNO,-67.0644302349354,-27.2352160693092,Localidad simple,INDEC,100098.0,10035.0
6882040,LIMA,-59.1973339595539,-34.0436335939636,Localidad simple,INDEC,60882.0,6882.0
10035060,FARALLON NEGRO,-66.6526535881206,-27.297991160481,Localidad simple,INDEC,100077.0,10035.0
10035070,HUALFIN,-66.8257494663378,-27.2251089488391,Localidad simple,INDEC,100077.0,10035.0
10035080,JACIPUNCO,-67.0189560597067,-27.2232502935304,Localidad simple,INDEC,100098.0,10035.0
10035090,LA PUNTILLA,-66.9831854181016,-27.6687999477098,Localidad simple,INDEC,100063.0,10035.0
10035110,LONDRES,-67.1521288574758,-27.7091441699136,Localidad simple,INDEC,100084.0,10035.0
10035120,LOS NACIMIENTOS,-66.7125336324121,-27.1276313861506,Localidad simple,INDEC,100077.0,10035.0
10035130,PUERTA DE CORRAL QUEMADO,-66.9263178640934,-27.2142919344438,Localidad simple,INDEC,100098.0,10035.0
10035140,PUERTA DE SAN JOSE,-67.0153310519752,-27.5397412070942,Localidad simple,INDEC,100105.0,10035.0
10035150,VILLA VIL,-66.8307696967368,-27.0710806751114,Localidad simple,INDEC,100119.0,10035.0
10042010,ADOLFO E. CARRANZA,-65.9719315369665,-29.0269775235925,Localidad simple,INDEC,100126.0,10042.0
10042020,BALDE DE LA PUNTA,-65.5807240749041,-29.5589484234071,Localidad simple,INDEC,100126.0,10042.0
10042030,CAPAYAN,-66.0386455444458,-28.7807106449765,Localidad simple,INDEC,100126.0,10042.0
10042040,CHUMBICHA,-66.2413567840967,-28.8475652676601,Localidad simple,INDEC,100126.0,10042.0
10042060,COLONIA NUEVA CONETA,-65.8384330489801,-28.5859218596167,Localidad simple,INDEC,100133.0,10042.0
10042070,CONCEPCION,-66.0684404425234,-28.7027878127673,Localidad simple,INDEC,100126.0,10042.0
10042080,CONETA,-65.8832899522771,-28.5824940471212,Localidad simple,INDEC,100133.0,10042.0
10042100,HUILLAPIMA,-65.9692671337205,-28.7326533523263,Localidad simple,INDEC,100133.0,10042.0
10042110,LOS ANGELES,-65.9584714095267,-28.4757282890296,Localidad simple,INDEC,100133.0,10042.0
10042120,MIRAFLORES,-65.9045510608673,-28.61156437771,Localidad simple,INDEC,100133.0,10042.0
10042130,SAN MARTIN,-65.7966971627176,-29.2514238184412,Localidad simple,INDEC,100126.0,10042.0
10042140,SAN PABLO,-66.0406031753627,-28.7185211619111,Localidad simple,INDEC,100133.0,10042.0
10042150,SAN PEDRO,-66.1240600986815,-28.7717177596284,Localidad simple,INDEC,100126.0,10042.0
10049020,EL PANTANILLO,-65.8026632730873,-28.5416893432334,Localidad simple,INDEC,100140.0,10049.0
10049030,SAN FERNANDO DEL VALLE DE CATAMARCA,-65.786789293763,-28.4846581947085,Componente de localidad compuesta,INDEC,100140.0,10049.0
10056010,EL ALTO,-65.369376719249,-28.3027477561138,Localidad simple,INDEC,100147.0,10056.0
10056020,GUAYAMBA,-65.4127476684157,-28.3441266642037,Localidad simple,INDEC,100147.0,10056.0
10056030,INFANZON,-65.4116602658917,-28.5973244077887,Localidad simple,INDEC,100147.0,10056.0
10056040,LOS CORRALES,-65.3308772218931,-28.5108290239161,Localidad simple,INDEC,100147.0,10056.0
10056050,TAPSO,-65.1086409589416,-28.4159041977159,Componente de localidad compuesta,INDEC,100154.0,10056.0
10056060,VILISMAN,-65.4385489995235,-28.5021133153073,Localidad simple,INDEC,100147.0,10056.0
10063010,COLLAGASTA,-65.7282690165025,-28.3616776397898,Localidad simple,INDEC,100161.0,10063.0
10063020,POMANCILLO ESTE,-65.7222098439933,-28.3087173740113,Localidad simple,INDEC,100161.0,10063.0
10063030,POMANCILLO OESTE,-65.7423447192214,-28.3178432457188,Localidad simple,INDEC,100161.0,10063.0
10063040,SAN JOSE,-65.7123014190702,-28.4017030273125,Componente de localidad compuesta,INDEC,100161.0,10063.0
10063050,VILLA LAS PIRQUITAS,-65.733431477509,-28.2754665210832,Localidad simple,INDEC,100161.0,10063.0
10070010,CASA DE PIEDRA,-65.5171151597056,-29.649289010725,Localidad simple,INDEC,100175.0,10070.0
10070020,EL AYBAL,-65.339695207396,-29.1066140404485,Localidad simple,INDEC,100175.0,10070.0
10070030,EL BANADO,-65.4161459216901,-29.1832354089391,Localidad simple,INDEC,100175.0,10070.0
10070040,EL DIVISADERO,-65.4233403523442,-29.193718415728,Localidad simple,INDEC,100175.0,10070.0
10070050,EL QUIMILO,-65.3926406151323,-29.9534214435134,Localidad simple,INDEC,100175.0,10070.0
10070060,ESQUIU,-65.2898287859815,-29.3790661944991,Localidad simple,INDEC,100175.0,10070.0
10070070,ICANO,-65.2902158081111,-28.9308886124085,Localidad simple,INDEC,100168.0,10070.0
10070080,LA DORADA,-65.4766321943102,-29.2804387843954,Localidad simple,INDEC,100175.0,10070.0
10070090,LA GUARDIA,-65.4504857993817,-29.5496731497758,Localidad simple,INDEC,100175.0,10070.0
10070100,LAS ESQUINAS,-65.1120210167305,-28.7644628061471,Localidad simple,INDEC,100168.0,10070.0
10070120,QUIROS,-65.1007302335708,-28.7883056058069,Localidad simple,INDEC,100168.0,10070.0
10070130,RAMBLONES,-65.374945475853,-29.1582844511715,Localidad simple,INDEC,100175.0,10070.0
10070150,SAN ANTONIO,-65.0949655869376,-28.9331053161662,Localidad simple,INDEC,100168.0,10070.0
10077010,AMADORES,-65.6462108146466,-28.2680363798745,Localidad simple,INDEC,100182.0,10077.0
10077020,EL ROSARIO,-65.688606939529,-27.9877541032226,Localidad simple,INDEC,100182.0,10077.0
10077030,LA BAJADA,-65.6282649899935,-28.3920524907261,Localidad simple,INDEC,100182.0,10077.0
10077040,LA HIGUERA,-65.699367489363,-27.9352828616507,Localidad simple,INDEC,100182.0,10077.0
10077050,LA MERCED,-65.6696062414473,-28.1537649054231,Localidad simple,INDEC,100182.0,10077.0
10077060,LA VINA,-65.6079383578394,-28.044445782746,Localidad simple,INDEC,100182.0,10077.0
10077070,LAS LAJAS,-65.7401079267206,-27.826913357423,Localidad simple,INDEC,100182.0,10077.0
10077080,MONTE POTRERO,-65.670675013192,-28.19124607288,Localidad simple,INDEC,100182.0,10077.0
10077090,PALO LABRADO,-65.6274299147885,-28.3360934480518,Localidad simple,INDEC,100182.0,10077.0
10077110,VILLA DE BALCOZNA,-65.7190758944755,-27.87835755933,Localidad simple,INDEC,100182.0,10077.0
10084020,COLANA,-66.1222559102194,-28.3432877302321,Localidad simple,INDEC,100185.0,10084.0
10084040,EL PAJONAL,-66.3017092655098,-28.3773148491306,Localidad simple,INDEC,100189.0,10084.0
10084050,JOYANGO,-66.1435569766782,-28.0731019653889,Localidad simple,INDEC,100196.0,10084.0
10084070,POMAN,-66.2220823999264,-28.3927801149204,Localidad simple,INDEC,100189.0,10084.0
10084080,RINCON,-66.1487991328879,-28.2022631098292,Localidad simple,INDEC,100196.0,10084.0
10084090,SAN MIGUEL,-66.2019565174868,-28.1297413013665,Localidad simple,INDEC,100196.0,10084.0
10084100,SAUJIL,-66.2145148644181,-28.173337080009,Localidad simple,INDEC,100196.0,10084.0
10084110,SIJAN,-66.2209299175292,-28.2623558875079,Localidad simple,INDEC,100196.0,10084.0
10091020,CASPICHANGO,-65.970794986953,-26.6859290047178,Localidad simple,INDEC,100210.0,10091.0
10091030,CHANAR PUNCO,-66.0434834449295,-26.7354113550042,Localidad simple,INDEC,100210.0,10091.0
10091050,EL DESMONTE,-66.020423153794,-26.9077168676094,Localidad simple,INDEC,100203.0,10091.0
10091060,EL PUESTO,-66.0140418967532,-26.6307679478767,Localidad simple,INDEC,100210.0,10091.0
10091070,FAMATANCA,-66.0592481425342,-26.8055410533594,Localidad simple,INDEC,100203.0,10091.0
10091080,FUERTE QUEMADO,-66.0644373734469,-26.6304336405934,Localidad simple,INDEC,100210.0,10091.0
10091090,LA HOYADA,-66.3686109740362,-26.5189083514476,Localidad simple,INDEC,100203.0,10091.0
10091100,LA LOMA,-66.0331064865258,-26.7574990827117,Componente de localidad compuesta,INDEC,100203.0,10091.0
10091110,LAS MOJARRAS,-66.0401662058747,-26.6990627613287,Localidad simple,INDEC,100210.0,10091.0
10091130,PUNTA DE BALASTO,-66.1487294264287,-26.9300943985158,Localidad simple,INDEC,100203.0,10091.0
10091140,SAN JOSE,-66.0347026505038,-26.7745564838512,Localidad simple,INDEC,100203.0,10091.0
10091150,SANTA MARIA,-66.0188844413109,-26.6891167120231,Localidad simple,INDEC,100210.0,10091.0
10091160,YAPES,-66.0179166770412,-26.8289862929732,Localidad simple,INDEC,100203.0,10091.0
10098010,ALIJILAN,-65.4915924205872,-28.1771812692249,Localidad simple,INDEC,100213.0,10098.0
10098020,BANADO DE OVANTA,-65.3076846046354,-28.1034003361447,Localidad simple,INDEC,100217.0,10098.0
10098030,LAS CANAS,-65.2230167049514,-28.2098696025062,Localidad simple,INDEC,100217.0,10098.0
10098040,LAVALLE,-65.1137806266473,-28.1946338127178,Componente de localidad compuesta,INDEC,100217.0,10098.0
10098050,LOS ALTOS,-65.4973640431533,-28.0488590493489,Localidad simple,INDEC,100213.0,10098.0
10098060,MANANTIALES,-65.5073235747446,-28.1469656455994,Localidad simple,INDEC,100213.0,10098.0
10098070,SAN PEDRO,-65.1680076958397,-27.9608485883022,Componente de localidad compuesta,INDEC,100217.0,10098.0
10105010,ANILLACO,-67.614283874159,-27.9001528461069,Localidad simple,INDEC,100231.0,10105.0
10105020,ANTINACO,-67.6080549409746,-27.231445564254,Localidad simple,INDEC,100224.0,10105.0
10105030,BANDA DE LUCERO,-67.5077024205599,-28.0687850626962,Localidad simple,INDEC,100231.0,10105.0
10105040,CERRO NEGRO,-67.144273179127,-28.2432405441597,Localidad simple,INDEC,100231.0,10105.0
10105050,COPACABANA,-67.4904155296291,-28.1415680978793,Localidad simple,INDEC,100231.0,10105.0
10105060,CORDOBITA,-67.1670904449903,-28.2979798704965,Localidad simple,INDEC,100231.0,10105.0
10105070,COSTA DE REYES,-67.702902490024,-28.2949599230089,Localidad simple,INDEC,100231.0,10105.0
10105080,EL PUEBLITO,-67.1234522983543,-28.2888183254668,Localidad simple,INDEC,100231.0,10105.0
10105090,EL PUESTO,-67.6304002049274,-27.9267621470675,Localidad simple,INDEC,100231.0,10105.0
10105100,EL SALADO,-67.250879321266,-28.3120206339513,Localidad simple,INDEC,100231.0,10105.0
10105110,FIAMBALA,-67.6083210338137,-27.6564765040882,Localidad simple,INDEC,100224.0,10105.0
10105120,LOS BALVERDIS,-67.1074444099183,-28.2769854029709,Localidad simple,INDEC,100231.0,10105.0
10105130,MEDANITOS,-67.5891477326484,-27.5239130706008,Localidad simple,INDEC,100224.0,10105.0
10105140,PALO BLANCO,-67.7592295432626,-27.3395852802531,Localidad simple,INDEC,100224.0,10105.0
10105150,PUNTA DEL AGUA,-67.7317928557181,-27.2106668219369,Localidad simple,INDEC,100224.0,10105.0
10105160,SAUJIL,-67.6355130611556,-27.5632127581426,Localidad simple,INDEC,100224.0,10105.0
10105170,TATON,-67.4747701838904,-27.3270122428844,Localidad simple,INDEC,100224.0,10105.0
10105180,TINOGASTA,-67.5802695760226,-28.0637510698675,Localidad simple,INDEC,100231.0,10105.0
10112010,EL PORTEZUELO,-65.6351326652418,-28.481868041951,Localidad simple,INDEC,100238.0,10112.0
10112030,LAS TEJAS,-65.7889935499028,-28.6468889609952,Localidad simple,INDEC,100238.0,10112.0
10112050,SANTA CRUZ,-65.6744465587279,-28.4928946549812,Localidad simple,INDEC,100238.0,10112.0
14007010,AMBOY,-64.5765483175138,-32.1759165218621,Localidad simple,INDEC,142007.0,14007.0
14007020,ARROYO SAN ANTONIO,-64.5937253212731,-32.26205146004,Localidad simple,INDEC,,14007.0
14007030,CANADA DEL SAUCE,-64.6425223427633,-32.3679991604312,Localidad simple,INDEC,142021.0,14007.0
14007040,CAPILLA VIEJA,-64.6165406145347,-31.9420274165289,Localidad simple,INDEC,140049.0,14007.0
14007050,EL CORCOVADO - EL TORREON,-64.5015914694579,-32.149759071844,Localidad simple,INDEC,140063.0,14007.0
14007055,EL DURAZNO,-64.7747710529989,-32.1695656120551,Localidad simple,INDEC,140070.0,14007.0
14007060,EMBALSE,-64.4006226825819,-32.2065076875762,Localidad simple,INDEC,140007.0,14007.0
14007080,LA CUMBRECITA,-64.7751589433588,-31.8969643877578,Componente de localidad compuesta,INDEC,143015.0,14007.0
14007100,LAS CALERAS,-64.5185923418535,-32.3893612457104,Localidad simple,INDEC,142035.0,14007.0
14007110,LOS CONDORES,-64.2810080327514,-32.3211277679392,Localidad simple,INDEC,140021.0,14007.0
14007120,LOS MOLINOS,-64.3779521586489,-31.8568223164308,Localidad simple,INDEC,142042.0,14007.0
14007130,LOS REARTES,-64.5755037073335,-31.919856077953,Componente de localidad compuesta,INDEC,142049.0,14007.0
14007140,LUTTI,-64.7254379234594,-32.2989441032587,Localidad simple,INDEC,142056.0,14007.0
14007170,RIO DE LOS SAUCES,-64.586953080243,-32.5265595269976,Localidad simple,INDEC,140028.0,14007.0
14007180,SAN AGUSTIN,-64.3733067164283,-31.9763155149128,Localidad simple,INDEC,140056.0,14007.0
14007190,SAN IGNACIO (LOTEO SAN JAVIER),-64.516397206098,-32.1667856733263,Localidad simple,INDEC,142063.0,14007.0
14007210,SANTA ROSA DE CALAMUCHITA,-64.537633731877,-32.0700578177618,Localidad simple,INDEC,140035.0,14007.0
14007220,SEGUNDA USINA,-64.3784225873001,-32.1650425977053,Localidad simple,INDEC,142070.0,14007.0
14007230,SOLAR DE LOS MOLINOS,-64.5197802668561,-31.8262216703829,Localidad simple,INDEC,142084.0,14007.0
14007240,VILLA ALPINA,-64.8132541353652,-31.9532611007669,Localidad simple,INDEC,,14007.0
14007250,VILLA AMANCAY,-64.570452981186,-32.1863928332037,Localidad simple,INDEC,142077.0,14007.0
14007260,VILLA BERNA,-64.7428823583405,-31.9052382568314,Localidad simple,INDEC,143015.0,14007.0
14007270,VILLA CIUDAD PARQUE LOS REARTES (1A. SECCION),-64.5279613493097,-31.9118704947274,Componente de localidad compuesta,INDEC,142084.0,14007.0
14007290,VILLA DEL DIQUE,-64.4567952849232,-32.1696837164743,Componente de localidad compuesta,INDEC,140042.0,14007.0
14007310,VILLA GENERAL BELGRANO,-64.5606191505918,-31.9808236449718,Localidad simple,INDEC,140049.0,14007.0
14007320,VILLA LA RIVERA,-64.5204928765462,-32.2667329359208,Localidad simple,INDEC,142091.0,14007.0
14007330,VILLA QUILLINZO,-64.5210498971139,-32.2384365356542,Localidad simple,INDEC,142091.0,14007.0
14007340,VILLA RUMIPAL,-64.4792063354191,-32.1893813417323,Componente de localidad compuesta,INDEC,140063.0,14007.0
14014010,CORDOBA,-64.1833384346292,-31.4138166206931,Componente de localidad compuesta,INDEC,140077.0,14014.0
14021010,AGUA DE ORO,-64.2955793576311,-31.058228127494,Componente de localidad compuesta,INDEC,140084.0,14021.0
14021020,ASCOCHINGA,-64.2754165610863,-30.9594645513035,Localidad simple,INDEC,140126.0,14021.0
14021025,BARRIO NUEVO RIO CEBALLOS,-64.2887924252948,-31.1980230004722,Componente de localidad compuesta,INDEC,140147.0,14021.0
14021030,CANTERAS EL SAUCE,-64.3145341004157,-31.0864140054075,Componente de localidad compuesta,INDEC,142105.0,14021.0
14021040,CASA BAMBA,-64.3992718801552,-31.3429017095306,Localidad simple,INDEC,140119.0,14021.0
14021050,COLONIA CAROYA,-64.066728610829,-31.0172322466264,Localidad simple,INDEC,140091.0,14021.0
14021060,COLONIA TIROLESA,-64.0672541009396,-31.2357859283773,Localidad simple,INDEC,140098.0,14021.0
14021070,COLONIA VICENTE AGUERO,-64.0190456537309,-31.0277849308523,Localidad simple,INDEC,142098.0,14021.0
14021075,VILLA CORAZON DE MARIA,-63.9963793951592,-31.4435294401245,Componente de localidad compuesta,INDEC,140133.0,14021.0
14021080,CORRAL QUEMADO,-64.3778448899044,-30.9890353478112,Localidad simple,INDEC,,14021.0
14021110,EL MANZANO,-64.2998324164847,-31.0817617139175,Componente de localidad compuesta,INDEC,142105.0,14021.0
14021120,ESTACION COLONIA TIROLESA,-64.0150545730464,-31.2735550500587,Localidad simple,INDEC,140098.0,14021.0
14021140,JESUS MARIA,-64.0957712868729,-30.9811937384049,Localidad simple,INDEC,140112.0,14021.0
14021150,LA CALERA,-64.3368093736089,-31.3441541784042,Componente de localidad compuesta,INDEC,140119.0,14021.0
14021170,LA PUERTA,-64.0402188172603,-31.1419300602666,Localidad simple,INDEC,140098.0,14021.0
14021175,LAS CORZUELAS,-64.2618872007094,-31.240896079449,Componente de localidad compuesta,INDEC,140168.0,14021.0
14021180,LOS MOLLES,-64.2253880804829,-31.0167070305726,Localidad simple,INDEC,140126.0,14021.0
14021190,MALVINAS ARGENTINAS,-64.0503196448495,-31.3677025435362,Componente de localidad compuesta,INDEC,140133.0,14021.0
14021200,MENDIOLAZA,-64.3038336466706,-31.2634679794013,Componente de localidad compuesta,INDEC,140140.0,14021.0
14021210,MI GRANJA,-63.9996450992295,-31.3501106609981,Localidad simple,INDEC,142119.0,14021.0
14021220,PAJAS BLANCAS,-64.2768259906649,-31.2146356684786,Localidad simple,INDEC,140147.0,14021.0
14021230,RIO CEBALLOS,-64.3096761754849,-31.1748535571499,Componente de localidad compuesta,INDEC,140147.0,14021.0
14021240,SALDAN,-64.3129043036137,-31.3142696814131,Componente de localidad compuesta,INDEC,140154.0,14021.0
14021250,SALSIPUEDES,-64.2906610433299,-31.1388344121698,Componente de localidad compuesta,INDEC,140161.0,14021.0
14021260,SANTA ELENA,-64.0753189644633,-31.2593058004875,Localidad simple,INDEC,140098.0,14021.0
14021270,TINOCO,-63.8923777817114,-31.1238790204144,Localidad simple,INDEC,142728.0,14021.0
14021280,UNQUILLO,-64.3177425598673,-31.2319725034056,Componente de localidad compuesta,INDEC,140168.0,14021.0
14021290,VILLA ALLENDE,-64.2950077746201,-31.2922067561376,Componente de localidad compuesta,INDEC,140175.0,14021.0
14021300,VILLA CERRO AZUL,-64.3197333591217,-31.0702139869894,Localidad simple,INDEC,142126.0,14021.0
14021310,PARQUE NORTE - CIUDAD DE LOS NINOS - VILLA PASTORA - ALMIRANTE BROWN - GUINAZU N,-64.1805270805742,-31.3101307241869,Componente de localidad compuesta,INDEC,140077.0,14021.0
14028010,ALTO DE LOS QUEBRACHOS,-65.0384387721916,-30.5409658147192,Localidad simple,INDEC,142133.0,14028.0
14028020,BANADO DE SOTO,-65.0436620185917,-30.8044357869451,Localidad simple,INDEC,142140.0,14028.0
14028030,CANTERAS QUILPO,-64.6829010647536,-30.8666932853441,Localidad simple,INDEC,,14028.0
14028040,CRUZ DE CANA,-64.9425321672363,-31.0662466251544,Localidad simple,INDEC,142147.0,14028.0
14028050,CRUZ DEL EJE,-64.8077377312137,-30.7218592173101,Localidad simple,INDEC,140182.0,14028.0
14028070,EL RINCON,-64.6484924752741,-30.7397207125925,Localidad simple,INDEC,,14028.0
14028110,LA HIGUERA,-65.1020313666951,-31.0139548417914,Localidad simple,INDEC,142175.0,14028.0
14028120,LAS CANADAS,-64.7189758691612,-30.9332479488458,Localidad simple,INDEC,,14028.0
14028130,LAS PLAYAS,-64.8508831281017,-30.6895900139602,Localidad simple,INDEC,142189.0,14028.0
14028150,MEDIA NARANJA,-64.9515406139404,-30.6233104657952,Localidad simple,INDEC,142203.0,14028.0
14028160,PASO VIEJO,-65.1864700189142,-30.7686835768001,Localidad simple,INDEC,,14028.0
14028170,SAN MARCOS SIERRA,-64.6468515131076,-30.7803420622583,Localidad simple,INDEC,140189.0,14028.0
14028180,SERREZUELA,-65.3813009621884,-30.6392026300348,Localidad simple,INDEC,140196.0,14028.0
14028190,TUCLAME,-65.2375410689391,-30.7485284753417,Localidad simple,INDEC,142217.0,14028.0
14028200,VILLA DE SOTO,-64.9924997261449,-30.852977256889,Localidad simple,INDEC,140203.0,14028.0
14035010,DEL CAMPILLO,-64.4945399243505,-34.3760847098309,Localidad simple,INDEC,140217.0,14035.0
14035020,ESTACION LECUEDER,-64.8094621973322,-34.4964110409998,Localidad simple,INDEC,,14035.0
14035030,HIPOLITO BOUCHARD,-63.508013061936,-34.7223142041085,Localidad simple,INDEC,140210.0,14035.0
14035050,ITALO,-63.781208388865,-34.7911820710534,Localidad simple,INDEC,140231.0,14035.0
14035060,MATTALDI,-64.1695033049234,-34.4803867338234,Localidad simple,INDEC,140245.0,14035.0
14035100,RANQUELES,-64.0987740916452,-34.8436937843761,Localidad simple,INDEC,142245.0,14035.0
14035110,SANTA MAGDALENA,-63.941510935076,-34.514736598064,Localidad simple,INDEC,140238.0,14035.0
14035120,VILLA HUIDOBRO,-64.5833571665395,-34.8371817717375,Localidad simple,INDEC,140252.0,14035.0
14035130,VILLA SARMIENTO,-64.7240499364673,-34.1216195744231,Localidad simple,INDEC,141120.0,14035.0
14035140,VILLA VALERIA,-64.917844943457,-34.3408530354994,Localidad simple,INDEC,140259.0,14035.0
14042010,ARROYO ALGODON,-63.1627861860009,-32.2019665986816,Localidad simple,INDEC,,14042.0
14042050,ETRURIA,-63.2472565146999,-32.9405157092885,Localidad simple,INDEC,140294.0,14042.0
14042060,LA LAGUNA,-63.2440045658431,-32.8014149822474,Localidad simple,INDEC,140301.0,14042.0
14042070,LA PALESTINA,-63.4092352057166,-32.6155884790713,Localidad simple,INDEC,140308.0,14042.0
14042090,LAS MOJARRAS,-63.2328555816575,-32.3029687109385,Localidad simple,INDEC,,14042.0
14042100,LUCA,-63.4762536378135,-32.5401979602741,Localidad simple,INDEC,140322.0,14042.0
14042110,PASCO,-63.3411254262064,-32.7470044961114,Localidad simple,INDEC,140329.0,14042.0
14042120,SANABRIA,-63.2479616144958,-32.527560043626,Localidad simple,INDEC,140280.0,14042.0
14042130,SILVIO PELLICO,-62.931650118919,-32.2506338091324,Localidad simple,INDEC,140336.0,14042.0
14042140,TICINO,-63.4353044375428,-32.6919271380136,Localidad simple,INDEC,140343.0,14042.0
14042150,TIO PUJIO,-63.3540179546817,-32.2863739057236,Localidad simple,INDEC,140350.0,14042.0
14042160,VILLA ALBERTINA,-63.1844586471364,-32.4342175966013,Localidad simple,INDEC,140357.0,14042.0
14042170,VILLA MARIA,-63.2499951238659,-32.4120836110321,Componente de localidad compuesta,INDEC,140357.0,14042.0
14042190,VILLA OESTE,-63.2875591644345,-32.4343319670367,Localidad simple,INDEC,140364.0,14042.0
14049010,AVELLANEDA,-64.2078393373412,-30.5946762022718,Localidad simple,INDEC,142259.0,14049.0
14049020,CANADA DE RIO PINTO,-64.2182971976614,-30.7759183214925,Localidad simple,INDEC,142266.0,14049.0
14049040,COPACABANA,-64.5555688574614,-30.6113486219317,Localidad simple,INDEC,,14049.0
14049050,DEAN FUNES,-64.3516697664768,-30.4229409365773,Localidad simple,INDEC,140371.0,14049.0
14049060,ESQUINA DEL ALAMBRE,-64.9074033309966,-30.6016118281727,Localidad simple,INDEC,142294.0,14049.0
14049080,LOS POZOS,-64.2664449882016,-30.5154516695053,Localidad simple,INDEC,142287.0,14049.0
14049090,OLIVARES DE SAN NICOLAS,-64.8433653744314,-30.6020503748658,Localidad simple,INDEC,142294.0,14049.0
14049100,QUILINO,-64.5029777045333,-30.2159552214688,Localidad simple,INDEC,140378.0,14049.0
14049110,SAN PEDRO DE TOYOS,-64.4475688737826,-30.4541583004868,Localidad simple,INDEC,,14049.0
14049120,VILLA GUTIERREZ,-64.1819590809899,-30.6569511707803,Localidad simple,INDEC,,14049.0
14049130,VILLA QUILINO,-64.4775674155262,-30.2101157475483,Localidad simple,INDEC,140378.0,14049.0
14056010,ALEJANDRO ROCA,-63.7205503922441,-33.3564514451723,Localidad simple,INDEC,140385.0,14056.0
14056020,ASSUNTA,-63.2259060913547,-33.6332962011646,Localidad simple,INDEC,142308.0,14056.0
14056030,BENGOLEA,-63.6719277875696,-33.0274173144801,Localidad simple,INDEC,140392.0,14056.0
14056040,CARNERILLO,-64.0256580552867,-32.9153142058652,Localidad simple,INDEC,140399.0,14056.0
14056050,CHARRAS,-64.0458262411649,-33.0241677315378,Localidad simple,INDEC,140406.0,14056.0
14056060,EL RASTREADOR,-63.5392368036406,-33.6644787319553,Localidad simple,INDEC,142315.0,14056.0
14056080,GENERAL DEHEZA,-63.7850383518255,-32.7549291159098,Localidad simple,INDEC,140420.0,14056.0
14056090,HUANCHILLAS,-63.6372618363763,-33.6655227252595,Localidad simple,INDEC,140427.0,14056.0
14056100,LA CARLOTA,-63.2969802619056,-33.4201679372505,Localidad simple,INDEC,140434.0,14056.0
14056120,OLAETA,-63.9085957407616,-33.0434821211836,Localidad simple,INDEC,140448.0,14056.0
14056140,PASO DEL DURAZNO,-64.0478670082552,-33.1704554487519,Componente de localidad compuesta,INDEC,142329.0,14056.0
14056150,SANTA EUFEMIA,-63.2820358699256,-33.1767529632621,Localidad simple,INDEC,140462.0,14056.0
14056160,UCACHA,-63.5082571588932,-33.0334392795816,Localidad simple,INDEC,140469.0,14056.0
14056170,VILLA REDUCCION,-63.8622207209792,-33.2014556304775,Localidad simple,INDEC,140455.0,14056.0
14063010,ALEJO LEDESMA,-62.6261405718946,-33.6076125942499,Localidad simple,INDEC,140476.0,14063.0
14063020,ARIAS,-62.402789011452,-33.6411632781096,Localidad simple,INDEC,140483.0,14063.0
14063030,CAMILO ALDAO,-62.0965954602144,-33.123740825534,Localidad simple,INDEC,140490.0,14063.0
14063060,COLONIA BARGE,-62.6081628269792,-33.2585411549016,Localidad simple,INDEC,142336.0,14063.0
14063070,COLONIA ITALIANA,-62.1807987939012,-33.3119180942558,Localidad simple,INDEC,140511.0,14063.0
14063080,COLONIA VEINTICINCO,-61.9347825911775,-32.8883679292315,Localidad simple,INDEC,,14063.0
14063100,CRUZ ALTA,-61.8109726038419,-33.0069947278727,Localidad simple,INDEC,140525.0,14063.0
14063110,GENERAL BALDISSERA,-62.3037212558104,-33.1220171765357,Localidad simple,INDEC,140532.0,14063.0
14063130,GUATIMOZIN,-62.4391434502619,-33.4617411292085,Localidad simple,INDEC,140546.0,14063.0
14063140,INRIVILLE,-62.2305487525417,-32.9438405235327,Localidad simple,INDEC,140553.0,14063.0
14063150,ISLA VERDE,-62.404426547367,-33.2401071501959,Localidad simple,INDEC,140560.0,14063.0
14063160,LEONES,-62.299914625293,-32.658391411409,Localidad simple,INDEC,140567.0,14063.0
14063210,SAIRA,-62.1029831790036,-32.4064116368009,Localidad simple,INDEC,140595.0,14063.0
14063220,SALADILLO,-62.3428774336317,-32.9331604883654,Localidad simple,INDEC,142343.0,14063.0
14070020,EL CHACHO,-65.6440521440398,-30.8017974058313,Localidad simple,INDEC,142364.0,14070.0
14070040,GUASAPAMPA,-65.3281875063158,-31.0975357099584,Localidad simple,INDEC,142378.0,14070.0
14070050,LA PLAYA,-65.3453122247049,-31.0350257440514,Localidad simple,INDEC,142385.0,14070.0
14070060,SAN CARLOS MINAS,-65.101705426717,-31.175590415787,Localidad simple,INDEC,140602.0,14070.0
14070080,TOSNO,-65.3099277411768,-30.9499425576932,Localidad simple,INDEC,142399.0,14070.0
14077020,LAS PALMAS,-65.2899757237495,-31.3800076236386,Localidad simple,INDEC,,14077.0
14077030,LOS TALARES,-65.0386011461093,-31.3754115021879,Localidad simple,INDEC,142434.0,14077.0
14077050,SAN GERONIMO,-64.9131949666644,-31.3409519996631,Localidad simple,INDEC,142427.0,14077.0
14077060,TALA CANADA,-64.9764519289304,-31.3570289681593,Localidad simple,INDEC,142434.0,14077.0
14077070,TANINGA,-65.0801168738369,-31.3454000529726,Localidad simple,INDEC,140609.0,14077.0
14077080,VILLA DE POCHO,-65.2830353856188,-31.4880894840309,Localidad simple,INDEC,142441.0,14077.0
14084010,GENERAL LEVALLE,-63.9225367502507,-34.0098324798955,Localidad simple,INDEC,140616.0,14084.0
14084020,LA CESIRA,-62.9744894136507,-33.9518611160055,Localidad simple,INDEC,140623.0,14084.0
14084040,LEGUIZAMON,-62.9768889543713,-34.2040788458157,Localidad simple,INDEC,142448.0,14084.0
14084050,MELO,-63.4471714447308,-34.3483191246017,Localidad simple,INDEC,140637.0,14084.0
14084070,ROSALES,-63.1534798469172,-34.171790725852,Localidad simple,INDEC,140644.0,14084.0
14084080,SAN JOAQUIN,-63.7132746964365,-34.5106395562101,Localidad simple,INDEC,142462.0,14084.0
14084090,SERRANO,-63.5375595280643,-34.4699818959404,Localidad simple,INDEC,140651.0,14084.0
14084100,VILLA ROSSI,-63.2685397142969,-34.297937327836,Localidad simple,INDEC,140658.0,14084.0
14091010,BARRIO SANTA ISABEL,-64.5367004570805,-30.8375267087623,Localidad simple,INDEC,140672.0,14091.0
14091020,BIALET MASSE,-64.4629696370027,-31.3123081567618,Componente de localidad compuesta,INDEC,140665.0,14091.0
14091030,CABALANGO,-64.5635652642982,-31.3931049014855,Localidad simple,INDEC,142469.0,14091.0
14091070,COSQUIN,-64.4655312574209,-31.240571224569,Componente de localidad compuesta,INDEC,140679.0,14091.0
14091080,CUESTA BLANCA,-64.5773466914484,-31.4787781890782,Componente de localidad compuesta,INDEC,142490.0,14091.0
14091090,ESTANCIA VIEJA,-64.517330819559,-31.3842597063571,Componente de localidad compuesta,INDEC,142497.0,14091.0
14091110,LA CUMBRE,-64.4909087135044,-30.9792461523826,Componente de localidad compuesta,INDEC,140693.0,14091.0
14091120,LA FALDA,-64.4864417754561,-31.0919649906581,Componente de localidad compuesta,INDEC,140700.0,14091.0
14091130,LAS JARILLAS,-64.5345928843012,-31.5182256602189,Localidad simple,INDEC,142511.0,14091.0
14091140,LOS COCOS,-64.5026123921003,-30.9269774865861,Componente de localidad compuesta,INDEC,140707.0,14091.0
14091150,MALLIN,-64.5749813483232,-31.2976747453985,Localidad simple,INDEC,140721.0,14091.0
14091160,MAYU SUMAJ,-64.5427634762868,-31.4668646402709,Componente de localidad compuesta,INDEC,142504.0,14091.0
14091170,QUEBRADA DE LUNA,-64.5210978856737,-30.7949898871398,Localidad simple,INDEC,140679.0,14091.0
14091180,SAN ANTONIO DE ARREDONDO,-64.5289350434399,-31.4782264688487,Componente de localidad compuesta,INDEC,142511.0,14091.0
14091190,SAN ESTEBAN,-64.5360036651851,-30.9199784063317,Componente de localidad compuesta,INDEC,140714.0,14091.0
14091200,SAN ROQUE,-64.4599293921174,-31.3496904364626,Componente de localidad compuesta,INDEC,142518.0,14091.0
14091210,SANTA MARIA DE PUNILLA,-64.4653357678432,-31.2703319860361,Componente de localidad compuesta,INDEC,140721.0,14091.0
14091250,VILLA CARLOS PAZ,-64.4933448063141,-31.4182380208919,Componente de localidad compuesta,INDEC,140742.0,14091.0
14091260,VILLA FLOR SERRANA,-64.6003659348122,-31.3864690388309,Localidad simple,INDEC,140728.0,14091.0
14091270,VILLA GIARDINO,-64.4928899121054,-31.0362773938945,Componente de localidad compuesta,INDEC,140749.0,14091.0
14091280,VILLA LAGO AZUL,-64.4831122938584,-31.3740257221359,Localidad simple,INDEC,142539.0,14091.0
14091290,VILLA PARQUE SIQUIMAN,-64.4802571053108,-31.3457170881093,Componente de localidad compuesta,INDEC,142532.0,14091.0
14091300,VILLA RIO ICHO CRUZ,-64.562747406585,-31.4791065590312,Componente de localidad compuesta,INDEC,142546.0,14091.0
14091310,VILLA SAN JOSE,-64.5653436907589,-31.279612799499,Localidad simple,INDEC,140721.0,14091.0
14091320,VILLA SANTA CRUZ DEL LAGO,-64.5205370832482,-31.369322851246,Componente de localidad compuesta,INDEC,142539.0,14091.0
14098010,ACHIRAS,-64.9944684969757,-33.1770175916926,Localidad simple,INDEC,140756.0,14098.0
14098030,ALCIRA GIGENA,-64.3378599293347,-32.757065291399,Localidad simple,INDEC,140770.0,14098.0
14098040,ALPA CORRAL,-64.721171054893,-32.6904036665231,Localidad simple,INDEC,140777.0,14098.0
14098050,BERROTARAN,-64.3854404675021,-32.4528669215341,Localidad simple,INDEC,140784.0,14098.0
14098070,CHAJAN,-65.0052699166312,-33.5563361347485,Localidad simple,INDEC,140798.0,14098.0
14098080,CHUCUL,-64.1712493406755,-33.0089546768665,Localidad simple,INDEC,142553.0,14098.0
14098110,ELENA,-64.3929518423935,-32.5720684109952,Localidad simple,INDEC,140819.0,14098.0
14098120,LA CAROLINA,-64.7251129655857,-33.1868433713045,Localidad simple,INDEC,142560.0,14098.0
14098140,LA GILDA,-64.2584448995097,-33.2082959166527,Localidad simple,INDEC,,14098.0
14098150,LAS ACEQUIAS,-63.9758763865889,-33.2822486969948,Localidad simple,INDEC,140833.0,14098.0
14098160,LAS ALBAHACAS,-64.8435915248655,-32.8924933762193,Localidad simple,INDEC,142567.0,14098.0
14098180,LAS PENAS,-64.1052291964295,-32.5348511864127,Localidad simple,INDEC,142574.0,14098.0
14098200,MALENA,-64.4320008051115,-33.4893410861497,Localidad simple,INDEC,142581.0,14098.0
14098210,MONTE DE LOS GAUCHOS,-63.8900068799972,-33.636887956776,Localidad simple,INDEC,140854.0,14098.0
14098220,PASO DEL DURAZNO,-64.0496307678069,-33.170068435327,Componente de localidad compuesta,INDEC,,14098.0
14098230,RIO CUARTO,-64.3487377033754,-33.1242631220063,Componente de localidad compuesta,INDEC,140861.0,14098.0
14098240,SAMPACHO,-64.7219849539761,-33.3845382952352,Localidad simple,INDEC,140868.0,14098.0
14098250,SAN BASILIO,-64.3151828240087,-33.4978542515605,Localidad simple,INDEC,140875.0,14098.0
14098260,SANTA CATALINA HOLMBERG,-64.4348164483493,-33.2059384521037,Localidad simple,INDEC,140882.0,14098.0
14098270,SUCO,-64.8316610855999,-33.4394729739475,Localidad simple,INDEC,142588.0,14098.0
14098280,TOSQUITAS,-64.4569327410668,-33.8188248224493,Localidad simple,INDEC,140889.0,14098.0
14098290,VICUNA MACKENNA,-64.3902222715013,-33.917235746816,Localidad simple,INDEC,140896.0,14098.0
14098310,VILLA SANTA EUGENIA,-64.741501810378,-32.6651066386532,Localidad simple,INDEC,140777.0,14098.0
14098320,WASHINGTON,-64.6886182213475,-33.8733676407196,Localidad simple,INDEC,142602.0,14098.0
14105010,ATAHONA,-63.7055651181425,-30.9035316228673,Localidad simple,INDEC,,14105.0
14105020,CANADA DE MACHADO,-63.5870264507761,-31.4289242714312,Localidad simple,INDEC,142616.0,14105.0
14105030,CAPILLA DE LOS REMEDIOS,-63.8321496909141,-31.4302065756542,Localidad simple,INDEC,142623.0,14105.0
14105040,CHALACEA,-63.5682265940855,-30.7545707267715,Localidad simple,INDEC,,14105.0
14105050,COLONIA LAS CUATRO ESQUINAS,-63.3375921895432,-31.1735851610445,Localidad simple,INDEC,,14105.0
14105060,DIEGO DE ROJAS,-63.3402795519709,-31.0286404171341,Localidad simple,INDEC,142651.0,14105.0
14105070,EL ALCALDE,-63.6017410478522,-31.1161396833417,Localidad simple,INDEC,,14105.0
14105080,EL CRISPIN,-63.6051650588702,-31.017971601362,Localidad simple,INDEC,142658.0,14105.0
14105090,ESQUINA,-63.7935627786301,-31.0772911263196,Localidad simple,INDEC,142665.0,14105.0
14105100,KILOMETRO 658,-63.5326025508152,-31.3701809412977,Localidad simple,INDEC,142672.0,14105.0
14105110,LA PARA,-63.0010662681494,-30.8925359716793,Localidad simple,INDEC,140903.0,14105.0
14105120,LA POSTA,-63.5163053686029,-30.5653596004713,Localidad simple,INDEC,142679.0,14105.0
14105130,LA PUERTA,-63.2532712015226,-30.8926051154777,Localidad simple,INDEC,140910.0,14105.0
14105140,LA QUINTA,-63.1501281830965,-31.0622588456023,Localidad simple,INDEC,142686.0,14105.0
14105150,LAS GRAMILLAS,-63.2418444621471,-31.0882555128663,Localidad simple,INDEC,,14105.0
14105170,MAQUINISTA GALLINI,-63.532118614378,-30.9074419738178,Localidad simple,INDEC,142707.0,14105.0
14105180,MONTE DEL ROSARIO,-63.6017850424963,-30.9826026339688,Localidad simple,INDEC,,14105.0
14105190,MONTECRISTO,-63.9457735584091,-31.3438538707604,Localidad simple,INDEC,140917.0,14105.0
14105200,OBISPO TREJO,-63.4130494343907,-30.7811924488334,Localidad simple,INDEC,140924.0,14105.0
14105210,PIQUILLIN,-63.7591050718367,-31.2995844445842,Localidad simple,INDEC,140931.0,14105.0
14105220,PLAZA DE MERCEDES,-63.2596192028417,-30.9780514540426,Localidad simple,INDEC,142714.0,14105.0
14105230,PUEBLO COMECHINGONES,-63.6075820921855,-31.1685485898925,Localidad simple,INDEC,142644.0,14105.0
14105240,RIO PRIMERO,-63.621866727412,-31.3291838493003,Localidad simple,INDEC,140938.0,14105.0
14105250,SAGRADA FAMILIA,-63.445471703469,-31.2897282303946,Localidad simple,INDEC,,14105.0
14105260,SANTA ROSA DE RIO PRIMERO,-63.4015912555355,-31.1514772066717,Localidad simple,INDEC,140945.0,14105.0
14105270,VILLA FONTANA,-63.1159181990178,-30.8940088267342,Localidad simple,INDEC,140952.0,14105.0
14112040,GUTEMBERG,-63.5149951918634,-29.7227092489555,Localidad simple,INDEC,142756.0,14112.0
14112060,LOS HOYOS,-63.6273622842683,-29.802434071812,Localidad simple,INDEC,142770.0,14112.0
14112070,PUESTO DE CASTRO,-63.4916854103812,-30.2390823848323,Localidad simple,INDEC,,14112.0
14112080,RAYO CORTADO,-63.8249818238142,-30.0742593288829,Localidad simple,INDEC,142784.0,14112.0
14112090,SAN PEDRO DE GUTEMBERG,-63.5610809474438,-29.698228417088,Localidad simple,INDEC,142756.0,14112.0
14112100,SANTA ELENA,-63.8438054710488,-30.1174756551011,Localidad simple,INDEC,142791.0,14112.0
14112120,VILLA CANDELARIA,-63.3548391354924,-29.8162963199276,Localidad simple,INDEC,142798.0,14112.0
14119010,CALCHIN,-63.2006870937546,-31.6679359912419,Localidad simple,INDEC,140973.0,14119.0
14119020,CALCHIN OESTE,-63.278168375262,-31.8633868408967,Localidad simple,INDEC,140980.0,14119.0
14119030,CAPILLA DEL CARMEN,-63.3421354529106,-31.5081678166164,Localidad simple,INDEC,140987.0,14119.0
14119040,CARRILOBO,-63.1165074420857,-31.8716468802323,Localidad simple,INDEC,140994.0,14119.0
14119050,COLAZO,-63.3834011052136,-31.964293093898,Localidad simple,INDEC,141001.0,14119.0
14119110,LOS CHANARITOS,-63.3321030427196,-31.4021377541587,Localidad simple,INDEC,142196.0,14119.0
14119140,MATORRALES,-63.5118521462998,-31.7144720415401,Localidad simple,INDEC,141043.0,14119.0
14119150,ONCATIVO,-63.6836820317482,-31.912835805369,Localidad simple,INDEC,141050.0,14119.0
14119170,POZO DEL MOLLE,-62.9199182599484,-32.0194389864602,Localidad simple,INDEC,141064.0,14119.0
14119190,RIO SEGUNDO,-63.9118630162229,-31.650153972407,Componente de localidad compuesta,INDEC,141071.0,14119.0
14119200,SANTIAGO TEMPLE,-63.4182078006181,-31.3871253007234,Localidad simple,INDEC,141078.0,14119.0
14119210,VILLA DEL ROSARIO,-63.5341489014562,-31.5540113344661,Localidad simple,INDEC,141085.0,14119.0
14126010,AMBUL,-65.0566540377037,-31.489683021508,Localidad simple,INDEC,142833.0,14126.0
14126020,ARROYO LOS PATOS,-65.0043001880149,-31.7500816583302,Localidad simple,INDEC,142840.0,14126.0
14126030,EL HUAYCO,-64.956092175607,-31.845848320458,Localidad simple,INDEC,142847.0,14126.0
14126040,LA CORTADERA,-65.37239422356,-31.668668399569,Localidad simple,INDEC,,14126.0
14126050,LAS CALLES,-64.9717608825205,-31.8206855464004,Localidad simple,INDEC,142847.0,14126.0
14126060,LAS OSCURAS,-65.3190950145101,-31.6633718662216,Localidad simple,INDEC,,14126.0
14126080,LOS CALLEJONES,-65.2330653421552,-31.9322689128265,Localidad simple,INDEC,141106.0,14126.0
14126090,MINA CLAVERO,-65.0055332639058,-31.7267843574618,Componente de localidad compuesta,INDEC,141092.0,14126.0
14126100,MUSSI,-65.0756894821312,-31.4273241562001,Localidad simple,INDEC,,14126.0
14126110,NONO,-65.0034036260171,-31.795570031823,Localidad simple,INDEC,141099.0,14126.0
14126120,PANAHOLMA,-65.058665894714,-31.626892878253,Localidad simple,INDEC,142861.0,14126.0
14126140,SAN LORENZO,-65.0255685400222,-31.6822276756771,Localidad simple,INDEC,142868.0,14126.0
14126150,SAN MARTIN,-65.5246625976025,-31.8969863219692,Localidad simple,INDEC,,14126.0
14126170,SAN VICENTE,-65.4304499825782,-31.8549846523947,Localidad simple,INDEC,142875.0,14126.0
14126180,SAUCE ARRIBA,-65.1687928322254,-31.9143833881487,Localidad simple,INDEC,142882.0,14126.0
14126190,TASNA,-65.1483381584252,-31.6303406921333,Localidad simple,INDEC,,14126.0
14126210,VILLA SARMIENTO,-65.191796702404,-31.9366572471396,Componente de localidad compuesta,INDEC,142252.0,14126.0
14133010,CONLARA,-65.2312586416728,-32.0788609958394,Localidad simple,INDEC,142889.0,14133.0
14133030,CRUZ CANA,-65.0273777504727,-32.2779029026255,Localidad simple,INDEC,141127.0,14133.0
14133050,EL PANTANILLO,-64.990651569992,-31.8862653496977,Localidad simple,INDEC,142917.0,14133.0
14133060,LA PAZ,-65.0511157108408,-32.2172752387548,Localidad simple,INDEC,141127.0,14133.0
14133070,LA POBLACION,-65.0309086009182,-32.0660031804969,Localidad simple,INDEC,142896.0,14133.0
14133080,LA RAMADA,-65.0361512187387,-32.2996521283095,Localidad simple,INDEC,141127.0,14133.0
14133090,LA TRAVESIA,-65.063758957899,-32.1066758248055,Localidad simple,INDEC,142924.0,14133.0
14133095,LAS CHACRAS,-65.0340964238205,-32.2418447787663,Localidad simple,INDEC,141127.0,14133.0
14133100,LAS TAPIAS,-65.1014219744873,-31.9522279195169,Componente de localidad compuesta,INDEC,142903.0,14133.0
14133110,LOS CERRILLOS,-65.4376442516279,-31.9737899960038,Localidad simple,INDEC,142910.0,14133.0
14133120,LOS HORNILLOS,-64.9900890034518,-31.9017353099654,Localidad simple,INDEC,142917.0,14133.0
14133150,LUYABA,-65.056618698571,-32.1483422464594,Localidad simple,INDEC,142924.0,14133.0
14133170,SAN JAVIER Y YACANTO,-65.027552227227,-32.0266518585481,Localidad simple,INDEC,141134.0,14133.0
14133180,SAN JOSE,-65.3152083482463,-31.9573259005881,Localidad simple,INDEC,141141.0,14133.0
14133190,VILLA DE LAS ROSAS,-65.0550181621034,-31.9484733205417,Componente de localidad compuesta,INDEC,141148.0,14133.0
14133200,VILLA DOLORES,-65.1961395608591,-31.9440434116077,Componente de localidad compuesta,INDEC,141155.0,14133.0
14133210,VILLA LA VINA,-65.0372746344972,-31.872771150983,Localidad simple,INDEC,141148.0,14133.0
14140010,ALICIA,-62.4657945680095,-31.9387491680744,Localidad simple,INDEC,141162.0,14140.0
14140020,ALTOS DE CHIPION,-62.3378881220879,-30.9563507625723,Localidad simple,INDEC,141169.0,14140.0
14140030,ARROYITO,-63.0503444103203,-31.4193908735633,Localidad simple,INDEC,141176.0,14140.0
14140040,BALNEARIA,-62.6671044005114,-31.0107075696974,Localidad simple,INDEC,141183.0,14140.0
14140050,BRINKMANN,-62.0356522438995,-30.8665250177702,Localidad simple,INDEC,141190.0,14140.0
14140060,COLONIA ANITA,-62.2135862922774,-31.1438629464364,Localidad simple,INDEC,,14140.0
14140070,COLONIA 10 DE JULIO,-62.114218229406,-30.5273759974763,Localidad simple,INDEC,,14140.0
14140080,COLONIA LAS PICHANAS,-62.9256664887207,-31.2454066292386,Localidad simple,INDEC,142945.0,14140.0
14140090,COLONIA MARINA,-62.3639645596989,-31.2485066335845,Localidad simple,INDEC,141197.0,14140.0
14140100,COLONIA PROSPERIDAD,-62.3663613505205,-31.6304966252155,Localidad simple,INDEC,141204.0,14140.0
14140120,COLONIA SAN PEDRO,-61.9175643185455,-30.7836021597954,Localidad simple,INDEC,142952.0,14140.0
14140130,COLONIA SANTA MARIA,-62.4278882105043,-31.6057747904501,Localidad simple,INDEC,141204.0,14140.0
14140140,COLONIA VALTELINA,-62.235437860737,-31.0529548297979,Localidad simple,INDEC,142959.0,14140.0
14140160,DEVOTO,-62.3061393858823,-31.403980918137,Localidad simple,INDEC,141225.0,14140.0
14140170,EL ARANADO,-62.8933443705701,-31.7412330671687,Localidad simple,INDEC,141232.0,14140.0
14140180,EL FORTIN,-62.3026285942111,-31.9672502352148,Localidad simple,INDEC,141239.0,14140.0
14140200,EL TIO,-62.82847376469,-31.3845486215618,Localidad simple,INDEC,141246.0,14140.0
14140210,ESTACION LUXARDO,-62.1333023360613,-31.3047488843392,Localidad simple,INDEC,142966.0,14140.0
14140215,COLONIA ITURRASPE,-62.1099182033011,-31.2071433242951,Localidad simple,INDEC,142938.0,14140.0
14140220,FREYRE,-62.0976333908888,-31.1647319320813,Localidad simple,INDEC,141253.0,14140.0
14140240,LA PAQUITA,-62.2154361817056,-30.9070545771133,Localidad simple,INDEC,141267.0,14140.0
14140250,LA TORDILLA,-63.0599042713798,-31.2352452196552,Localidad simple,INDEC,141274.0,14140.0
14140270,LAS VARILLAS,-62.7187948274612,-31.8731135581313,Localidad simple,INDEC,141288.0,14140.0
14140280,MARULL,-62.8258401081139,-30.9945226321227,Localidad simple,INDEC,141295.0,14140.0
14140300,MORTEROS,-62.0044437379159,-30.7107058083835,Localidad simple,INDEC,141309.0,14140.0
14140310,PLAZA LUXARDO,-62.2291672872465,-31.301747140591,Localidad simple,INDEC,142966.0,14140.0
14140320,PLAZA SAN FRANCISCO,-62.0980386090508,-31.3698057980989,Localidad simple,INDEC,141337.0,14140.0
14140330,PORTENA,-62.0633288002735,-31.0139211475279,Localidad simple,INDEC,141316.0,14140.0
14140340,QUEBRACHO HERRADO,-62.2257312576183,-31.5496022220547,Localidad simple,INDEC,141323.0,14140.0
14140350,SACANTA,-63.0453212093259,-31.6633035739729,Localidad simple,INDEC,141330.0,14140.0
14140360,SAN FRANCISCO,-62.0866336146078,-31.4276088869788,Localidad simple,INDEC,141337.0,14140.0
14140370,SATURNINO MARIA LASPIUR,-62.4840180855351,-31.7029319509565,Localidad simple,INDEC,141344.0,14140.0
14140390,TORO PUJIO,-62.9876506224993,-31.1090401829574,Localidad simple,INDEC,142973.0,14140.0
14140400,TRANSITO,-63.1954038579264,-31.4251109532295,Localidad simple,INDEC,141358.0,14140.0
14140420,VILLA CONCEPCION DEL TIO,-62.8144745758859,-31.3224689015774,Localidad simple,INDEC,141365.0,14140.0
14140440,VILLA SAN ESTEBAN,-62.896766816574,-31.6335474004986,Localidad simple,INDEC,142980.0,14140.0
14147030,BARRIO GILBERT (1o DE MAYO) - TEJAS TRES,-64.3178623084579,-31.4426508165936,Localidad simple,INDEC,141393.0,14147.0
14147055,CAMPOS DEL VIRREY,-64.3439770074277,-31.5854354142153,Localidad simple,INDEC,143106.0,14147.0
14147065,CAUSANA,-64.4124514041777,-31.4637911559576,Localidad simple,INDEC,141393.0,14147.0
14147070,COSTA AZUL,-64.3939272186065,-31.7247289371172,Localidad simple,INDEC,142987.0,14147.0
14147080,DESPENADEROS,-64.2889894059973,-31.8170515932731,Localidad simple,INDEC,141379.0,14147.0
14147090,DIQUE CHICO,-64.3627643049016,-31.751852051978,Localidad simple,INDEC,143001.0,14147.0
14147095,EL POTRERILLO,-64.481617153406,-31.6456181955204,Localidad simple,INDEC,141372.0,14147.0
14147110,FALDA DEL CARMEN,-64.4548814536225,-31.5854632680747,Localidad simple,INDEC,143008.0,14147.0
14147120,LA BOCA DEL RIO,-64.4336411746815,-31.8374172963205,Localidad simple,INDEC,143113.0,14147.0
14147130,LA CARBONADA,-64.0712556356294,-31.5285694623422,Localidad simple,INDEC,,14147.0
14147150,LA PAISANITA,-64.4779150030479,-31.7194206060413,Localidad simple,INDEC,143022.0,14147.0
14147160,LA PERLA,-64.3484859265831,-31.4425579240341,Localidad simple,INDEC,141393.0,14147.0
14147170,LA RANCHERITA Y LAS CASCADAS,-64.4486902777249,-31.7574675409558,Componente de localidad compuesta,INDEC,143113.0,14147.0
14147180,LA SERRANITA,-64.4564154524522,-31.7331340814564,Componente de localidad compuesta,INDEC,143036.0,14147.0
14147190,LOS CEDROS,-64.2847584167114,-31.5262509877113,Localidad simple,INDEC,143043.0,14147.0
14147210,MALAGUENO,-64.3584261973277,-31.4648051043666,Localidad simple,INDEC,141393.0,14147.0
